[{"id":"AK_6273049_-16459295","name":"Emmonak","state":"AK","county":"Kusilvak","lat":62.7305,"lon":-164.59296,"primary_fuel_bucket":"oil","nerc_region":"AK","member_count":2,"member_oris_codes":[57053,6314],"capacity_mw":4.0,"annual_net_gen_mwh":5820.0,"annual_co2_tons":4377.376,"annual_nox_tons":89.051,"annual_so2_tons":7.772,"annual_ch4_lbs":354.523,"annual_n2o_lbs":70.905,"annual_co2e_tons":4391.734,"capacity_factor":0.166,"emissions_intensity_kg_per_mwh":682.318},{"id":"AK_6108362_-14632831","name":"Solomon Gulch","state":"AK","county":"Valdez Cordova","lat":61.08362,"lon":-146.32832,"primary_fuel_bucket":"dam","nerc_region":"AK","member_count":2,"member_oris_codes":[58982,390],"capacity_mw":18.5,"annual_net_gen_mwh":54891.0,"annual_co2_tons":null,"annual_nox_tons":null,"annual_so2_tons":null,"annual_ch4_lbs":null,"annual_n2o_lbs":null,"annual_co2e_tons":null,"capacity_factor":0.339,"emissions_intensity_kg_per_mwh":null},{"id":"AK_6698804_-15749846","name":"Shungnak","state":"AK","county":"Northwest Arctic","lat":66.98805,"lon":-157.49846,"primary_fuel_bucket":"oil","nerc_region":"AK","member_count":2,"member_oris_codes":[60243,57063],"capacity_mw":2.3,"annual_net_gen_mwh":2985.0,"annual_co2_tons":2383.17,"annual_nox_tons":48.481,"annual_so2_tons":4.232,"annual_ch4_lbs":193.013,"annual_n2o_lbs":38.603,"annual_co2e_tons":2390.987,"capacity_factor":0.148,"emissions_intensity_kg_per_mwh":724.28},{"id":"AK_5749916_-13458614","name":"Angoon","state":"AK","county":"Hoonah-Angoon","lat":57.49917,"lon":-134.58614,"primary_fuel_bucket":"oil","nerc_region":"AK","member_count":1,"member_oris_codes":[7462],"capacity_mw":1.5,"annual_net_gen_mwh":1816.0,"annual_co2_tons":1911.729,"annual_nox_tons":30.225,"annual_so2_tons":3.394,"annual_ch4_lbs":154.831,"annual_n2o_lbs":30.966,"annual_co2e_tons":1918.0,"capacity_factor":0.138,"emissions_intensity_kg_per_mwh":955.007},{"id":"AK_6158067_-15953564","name":"Aniak","state":"AK","county":"Bethel","lat":61.58068,"lon":-159.53564,"primary_fuel_bucket":"oil","nerc_region":"AK","member_count":1,"member_oris_codes":[7182],"capacity_mw":1.7,"annual_net_gen_mwh":2017.0,"annual_co2_tons":2139.649,"annual_nox_tons":41.92,"annual_so2_tons":3.799,"annual_ch4_lbs":173.29,"annual_n2o_lbs":34.658,"annual_co2e_tons":2146.667,"capacity_factor":0.135,"emissions_intensity_kg_per_mwh":962.349},{"id":"AK_5826584_-13415436","name":"Snettisham","state":"AK","county":"Juneau","lat":58.26584,"lon":-134.15436,"primary_fuel_bucket":"dam","nerc_region":"AK","member_count":5,"member_oris_codes":[62,63,57085,65,78],"capacity_mw":114.7,"annual_net_gen_mwh":436981.0,"annual_co2_tons":10.369,"annual_nox_tons":0.215,"annual_so2_tons":0.018,"annual_ch4_lbs":0.84,"annual_n2o_lbs":0.168,"annual_co2e_tons":10.403,"capacity_factor":0.435,"emissions_intensity_kg_per_mwh":0.022},{"id":"AK_5836957_-13458264","name":"Lemon Creek","state":"AK","county":"Juneau","lat":58.36958,"lon":-134.58264,"primary_fuel_bucket":"oil","nerc_region":"AK","member_count":3,"member_oris_codes":[7250,59793,64],"capacity_mw":139.6,"annual_net_gen_mwh":-1174.0,"annual_co2_tons":953.009,"annual_nox_tons":7.783,"annual_so2_tons":2.719,"annual_ch4_lbs":77.184,"annual_n2o_lbs":15.436,"annual_co2e_tons":956.135,"capacity_factor":-0.001,"emissions_intensity_kg_per_mwh":null},{"id":"AK_6479973_-14757043","name":"University of Alaska Fairbanks","state":"AK","county":"Fairbanks North Star","lat":64.79973,"lon":-147.57044,"primary_fuel_bucket":"coal","nerc_region":"AK","member_count":4,"member_oris_codes":[79,50392,50711,50308],"capacity_mw":113.1,"annual_net_gen_mwh":362816.8,"annual_co2_tons":271598.246,"annual_nox_tons":432.694,"annual_so2_tons":278.659,"annual_ch4_lbs":61378.451,"annual_n2o_lbs":8933.041,"annual_co2e_tons":273641.171,"capacity_factor":0.366,"emissions_intensity_kg_per_mwh":679.103},{"id":"AK_7129200_-15677860","name":"Barrow","state":"AK","county":"North Slope","lat":71.292,"lon":-156.7786,"primary_fuel_bucket":"gas","nerc_region":"AK","member_count":1,"member_oris_codes":[7173],"capacity_mw":17.3,"annual_net_gen_mwh":46662.0,"annual_co2_tons":45199.655,"annual_nox_tons":123.742,"annual_so2_tons":1.236,"annual_ch4_lbs":1705.032,"annual_n2o_lbs":170.15,"annual_co2e_tons":45246.07,"capacity_factor":0.308,"emissions_intensity_kg_per_mwh":878.755},{"id":"AK_6481670_-14772500","name":"Battery Energy Storage System","state":"AK","county":"Fairbanks North Star","lat":64.8167,"lon":-147.725,"primary_fuel_bucket":"other","nerc_region":"AK","member_count":1,"member_oris_codes":[57583],"capacity_mw":40.0,"annual_net_gen_mwh":-2443.0,"annual_co2_tons":null,"annual_nox_tons":null,"annual_so2_tons":null,"annual_ch4_lbs":null,"annual_n2o_lbs":null,"annual_co2e_tons":null,"capacity_factor":-0.007,"emissions_intensity_kg_per_mwh":null},{"id":"AK_5532245_-13151417","name":"Swan Lake","state":"AK","county":"Ketchikan Gateway","lat":55.32246,"lon":-131.51418,"primary_fuel_bucket":"dam","nerc_region":"AK","member_count":7,"member_oris_codes":[6580,7168,84,6302,6581,70,58977],"capacity_mw":44.3,"annual_net_gen_mwh":174538.0,"annual_co2_tons":null,"annual_nox_tons":null,"annual_so2_tons":null,"annual_ch4_lbs":null,"annual_n2o_lbs":null,"annual_co2e_tons":null,"capacity_factor":0.45,"emissions_intensity_kg_per_mwh":null},{"id":"AK_6118610_-15103559","name":"Beluga","state":"AK","county":"Kenai Peninsula","lat":61.1861,"lon":-151.0356,"primary_fuel_bucket":"gas","nerc_region":"AK","member_count":1,"member_oris_codes":[96],"capacity_mw":312.4,"annual_net_gen_mwh":525.0,"annual_co2_tons":6331.47,"annual_nox_tons":17.335,"annual_so2_tons":0.173,"annual_ch4_lbs":238.834,"annual_n2o_lbs":23.833,"annual_co2e_tons":6337.972,"capacity_factor":0.0,"emissions_intensity_kg_per_mwh":10940.578},{"id":"AK_6064393_-15130444","name":"Soldotna","state":"AK","county":"Kenai Peninsula","lat":60.64394,"lon":-151.30445,"primary_fuel_bucket":"gas","nerc_region":"AK","member_count":5,"member_oris_codes":[6292,55966,54452,57206,52184],"capacity_mw":275.1,"annual_net_gen_mwh":507660.0,"annual_co2_tons":249872.476,"annual_nox_tons":696.224,"annual_so2_tons":2.035,"annual_ch4_lbs":9430.667,"annual_n2o_lbs":941.206,"annual_co2e_tons":250129.215,"capacity_factor":0.211,"emissions_intensity_kg_per_mwh":446.52},{"id":"AK_6085289_-16225574","name":"Bethel","state":"AK","county":"Bethel","lat":60.85289,"lon":-162.25574,"primary_fuel_bucket":"oil","nerc_region":"AK","member_count":3,"member_oris_codes":[6566,57066,6333],"capacity_mw":15.1,"annual_net_gen_mwh":46884.0,"annual_co2_tons":35533.395,"annual_nox_tons":722.859,"annual_so2_tons":63.093,"annual_ch4_lbs":2877.848,"annual_n2o_lbs":575.57,"annual_co2e_tons":35649.948,"capacity_factor":0.354,"emissions_intensity_kg_per_mwh":687.556},{"id":"AK_5551990_-13301941","name":"Black Bear Lake","state":"AK","county":"Prince of Wales-Hyder","lat":55.5199,"lon":-133.01942,"primary_fuel_bucket":"dam","nerc_region":"AK","member_count":2,"member_oris_codes":[7752,56265],"capacity_mw":6.5,"annual_net_gen_mwh":25840.0,"annual_co2_tons":null,"annual_nox_tons":null,"annual_so2_tons":null,"annual_ch4_lbs":null,"annual_n2o_lbs":null,"annual_co2e_tons":null,"capacity_factor":0.454,"emissions_intensity_kg_per_mwh":null},{"id":"AK_5701894_-13517622","name":"Green Lake","state":"AK","county":"Sitka","lat":57.01894,"lon":-135.17622,"primary_fuel_bucket":"dam","nerc_region":"AK","member_count":2,"member_oris_codes":[93,313],"capacity_mw":34.5,"annual_net_gen_mwh":122073.0,"annual_co2_tons":null,"annual_nox_tons":null,"annual_so2_tons":null,"annual_ch4_lbs":null,"annual_n2o_lbs":null,"annual_co2e_tons":null,"capacity_factor":0.404,"emissions_intensity_kg_per_mwh":null},{"id":"AK_5977862_-15094014","name":"Bradley Lake","state":"AK","county":"Kenai Peninsula","lat":59.77862,"lon":-150.94015,"primary_fuel_bucket":"dam","nerc_region":"AK","member_count":1,"member_oris_codes":[7367],"capacity_mw":126.0,"annual_net_gen_mwh":395080.0,"annual_co2_tons":null,"annual_nox_tons":null,"annual_so2_tons":null,"annual_ch4_lbs":null,"annual_n2o_lbs":null,"annual_co2e_tons":null,"capacity_factor":0.358,"emissions_intensity_kg_per_mwh":null},{"id":"AK_6533171_-16647950","name":"Brevig Mission","state":"AK","county":"Nome","lat":65.33172,"lon":-166.47951,"primary_fuel_bucket":"oil","nerc_region":"AK","member_count":1,"member_oris_codes":[60260],"capacity_mw":1.0,"annual_net_gen_mwh":1352.0,"annual_co2_tons":1073.867,"annual_nox_tons":21.845,"annual_so2_tons":1.907,"annual_ch4_lbs":86.972,"annual_n2o_lbs":17.394,"annual_co2e_tons":1077.389,"capacity_factor":0.154,"emissions_intensity_kg_per_mwh":720.559},{"id":"AK_5523941_-13162861","name":"S W Bailey","state":"AK","county":"Prince of Wales-Hyder","lat":55.23942,"lon":-131.62861,"primary_fuel_bucket":"oil","nerc_region":"AK","member_count":2,"member_oris_codes":[7112,85],"capacity_mw":27.7,"annual_net_gen_mwh":143.0,"annual_co2_tons":25398.216,"annual_nox_tons":498.068,"annual_so2_tons":45.098,"annual_ch4_lbs":2057.001,"annual_n2o_lbs":411.4,"annual_co2e_tons":25481.525,"capacity_factor":0.001,"emissions_intensity_kg_per_mwh":161125.039},{"id":"AK_6163306_-16575786","name":"Hooper Bay","state":"AK","county":"Bethel","lat":61.63306,"lon":-165.75786,"primary_fuel_bucket":"oil","nerc_region":"AK","member_count":3,"member_oris_codes":[6311,6319,57056],"capacity_mw":5.3,"annual_net_gen_mwh":8508.0,"annual_co2_tons":5806.12,"annual_nox_tons":118.113,"annual_so2_tons":10.309,"annual_ch4_lbs":470.237,"annual_n2o_lbs":94.047,"annual_co2e_tons":5825.165,"capacity_factor":0.183,"emissions_intensity_kg_per_mwh":619.091},{"id":"AK_6039233_-14966560","name":"Cooper Lake","state":"AK","county":"Kenai Peninsula","lat":60.39233,"lon":-149.6656,"primary_fuel_bucket":"dam","nerc_region":"AK","member_count":1,"member_oris_codes":[6291],"capacity_mw":19.4,"annual_net_gen_mwh":46389.0,"annual_co2_tons":null,"annual_nox_tons":null,"annual_so2_tons":null,"annual_ch4_lbs":null,"annual_n2o_lbs":null,"annual_co2e_tons":null,"capacity_factor":0.273,"emissions_intensity_kg_per_mwh":null},{"id":"AK_5549179_-13297020","name":"Craig (AK)","state":"AK","county":"Prince of Wales-Hyder","lat":55.4918,"lon":-132.97021,"primary_fuel_bucket":"oil","nerc_region":"AK","member_count":6,"member_oris_codes":[421,56146,423,61684,7414,56147],"capacity_mw":13.9,"annual_net_gen_mwh":3550.0,"annual_co2_tons":3030.509,"annual_nox_tons":59.376,"annual_so2_tons":5.381,"annual_ch4_lbs":250.473,"annual_n2o_lbs":50.094,"annual_co2e_tons":3040.653,"capacity_factor":0.029,"emissions_intensity_kg_per_mwh":774.432},{"id":"AK_6400081_-14571801","name":"Delta Power","state":"AK","county":"Southeast Fairbanks","lat":64.00081,"lon":-145.71801,"primary_fuel_bucket":"oil","nerc_region":"AK","member_count":2,"member_oris_codes":[56325,54834],"capacity_mw":30.5,"annual_net_gen_mwh":201.0,"annual_co2_tons":503.615,"annual_nox_tons":3.985,"annual_so2_tons":1.451,"annual_ch4_lbs":40.787,"annual_n2o_lbs":8.157,"annual_co2e_tons":505.267,"capacity_factor":0.001,"emissions_intensity_kg_per_mwh":2272.995},{"id":"AK_6401388_-14559666","name":"Delta Wind Farm","state":"AK","county":"Southeast Fairbanks","lat":64.01389,"lon":-145.59667,"primary_fuel_bucket":"wind","nerc_region":"AK","member_count":1,"member_oris_codes":[58511],"capacity_mw":1.9,"annual_net_gen_mwh":3983.0,"annual_co2_tons":null,"annual_nox_tons":null,"annual_so2_tons":null,"annual_ch4_lbs":null,"annual_n2o_lbs":null,"annual_co2e_tons":null,"capacity_factor":0.239,"emissions_intensity_kg_per_mwh":null},{"id":"AK_5904291_-15846859","name":"Dillingham","state":"AK","county":"Dillingham","lat":59.04291,"lon":-158.4686,"primary_fuel_bucket":"oil","nerc_region":"AK","member_count":1,"member_oris_codes":[109],"capacity_mw":11.0,"annual_net_gen_mwh":18686.0,"annual_co2_tons":14637.252,"annual_nox_tons":285.801,"annual_so2_tons":25.99,"annual_ch4_lbs":1185.471,"annual_n2o_lbs":237.094,"annual_co2e_tons":14685.264,"capacity_factor":0.194,"emissions_intensity_kg_per_mwh":710.623},{"id":"AK_5387364_-16653921","name":"Dutch Harbor","state":"AK","county":"Aleutians West","lat":53.87364,"lon":-166.53921,"primary_fuel_bucket":"oil","nerc_region":"AK","member_count":4,"member_oris_codes":[7502,7503,54422,54305],"capacity_mw":47.1,"annual_net_gen_mwh":91600.5,"annual_co2_tons":65577.026,"annual_nox_tons":1288.407,"annual_so2_tons":116.438,"annual_ch4_lbs":5311.082,"annual_n2o_lbs":1062.217,"annual_co2e_tons":65792.124,"capacity_factor":0.222,"emissions_intensity_kg_per_mwh":649.456},{"id":"AK_5778964_-15242397","name":"ESS Battery Microgrid","state":"AK","county":"Kodiak Island","lat":57.78964,"lon":-152.42397,"primary_fuel_bucket":"other","nerc_region":"AK","member_count":2,"member_oris_codes":[58405,60563],"capacity_mw":5.0,"annual_net_gen_mwh":-612.0,"annual_co2_tons":null,"annual_nox_tons":null,"annual_so2_tons":null,"annual_ch4_lbs":null,"annual_n2o_lbs":null,"annual_co2e_tons":null,"capacity_factor":-0.014,"emissions_intensity_kg_per_mwh":null},{"id":"AK_6124919_-14975011","name":"George M Sullivan Generation Plant 2","state":"AK","county":"Anchorage","lat":61.2492,"lon":-149.75011,"primary_fuel_bucket":"gas","nerc_region":"AK","member_count":5,"member_oris_codes":[58989,6559,75,6293,57036],"capacity_mw":814.7,"annual_net_gen_mwh":2570628.0,"annual_co2_tons":1260564.566,"annual_nox_tons":11050.598,"annual_so2_tons":15.508,"annual_ch4_lbs":48427.212,"annual_n2o_lbs":4832.563,"annual_co2e_tons":1261882.861,"capacity_factor":0.36,"emissions_intensity_kg_per_mwh":444.858},{"id":"AK_6147521_-14915009","name":"Eklutna Hydro Project","state":"AK","county":"Matanuska Susitna","lat":61.47521,"lon":-149.15009,"primary_fuel_bucket":"dam","nerc_region":"AK","member_count":1,"member_oris_codes":[77],"capacity_mw":44.4,"annual_net_gen_mwh":197787.0,"annual_co2_tons":null,"annual_nox_tons":null,"annual_so2_tons":null,"annual_ch4_lbs":null,"annual_n2o_lbs":null,"annual_co2e_tons":null,"capacity_factor":0.509,"emissions_intensity_kg_per_mwh":null},{"id":"AK_6461655_-16226371","name":"Elim","state":"AK","county":"Nome","lat":64.61656,"lon":-162.26372,"primary_fuel_bucket":"oil","nerc_region":"AK","member_count":1,"member_oris_codes":[57060],"capacity_mw":1.1,"annual_net_gen_mwh":1294.0,"annual_co2_tons":930.169,"annual_nox_tons":18.923,"annual_so2_tons":1.652,"annual_ch4_lbs":75.334,"annual_n2o_lbs":15.067,"annual_co2e_tons":933.22,"capacity_factor":0.134,"emissions_intensity_kg_per_mwh":652.114},{"id":"AK_6405833_-14890000","name":"Eva Creek Wind","state":"AK","county":"Denali","lat":64.05833,"lon":-148.9,"primary_fuel_bucket":"wind","nerc_region":"AK","member_count":1,"member_oris_codes":[57935],"capacity_mw":24.6,"annual_net_gen_mwh":31127.0,"annual_co2_tons":null,"annual_nox_tons":null,"annual_so2_tons":null,"annual_ch4_lbs":null,"annual_n2o_lbs":null,"annual_co2e_tons":null,"capacity_factor":0.144,"emissions_intensity_kg_per_mwh":null},{"id":"AK_6054047_-14574079","name":"Eyak Service Center BESS","state":"AK","county":"Valdez Cordova","lat":60.54047,"lon":-145.74079,"primary_fuel_bucket":"other","nerc_region":"AK","member_count":1,"member_oris_codes":[62714],"capacity_mw":1.0,"annual_net_gen_mwh":-75.0,"annual_co2_tons":null,"annual_nox_tons":null,"annual_so2_tons":null,"annual_ch4_lbs":null,"annual_n2o_lbs":null,"annual_co2e_tons":null,"capacity_factor":-0.009,"emissions_intensity_kg_per_mwh":null},{"id":"AK_6479488_-14753372","name":"North Pole","state":"AK","county":"Fairbanks North Star","lat":64.79489,"lon":-147.53373,"primary_fuel_bucket":"oil","nerc_region":"AK","member_count":2,"member_oris_codes":[6286,6285],"capacity_mw":223.2,"annual_net_gen_mwh":450978.0,"annual_co2_tons":333564.921,"annual_nox_tons":1787.997,"annual_so2_tons":436.752,"annual_ch4_lbs":194390.733,"annual_n2o_lbs":26493.684,"annual_co2e_tons":339796.804,"capacity_factor":0.231,"emissions_intensity_kg_per_mwh":670.997},{"id":"AK_6113000_-15024361","name":"Fire Island Wind","state":"AK","county":"Anchorage","lat":61.13,"lon":-150.24361,"primary_fuel_bucket":"wind","nerc_region":"AK","member_count":1,"member_oris_codes":[58425],"capacity_mw":18.0,"annual_net_gen_mwh":46280.0,"annual_co2_tons":null,"annual_nox_tons":null,"annual_so2_tons":null,"annual_ch4_lbs":null,"annual_n2o_lbs":null,"annual_co2e_tons":null,"capacity_factor":0.294,"emissions_intensity_kg_per_mwh":null},{"id":"AK_6474417_-15687360","name":"Galena Electric Utility","state":"AK","county":"Yukon Koyukuk","lat":64.74417,"lon":-156.8736,"primary_fuel_bucket":"oil","nerc_region":"AK","member_count":1,"member_oris_codes":[7437],"capacity_mw":3.1,"annual_net_gen_mwh":null,"annual_co2_tons":null,"annual_nox_tons":null,"annual_so2_tons":null,"annual_ch4_lbs":null,"annual_n2o_lbs":null,"annual_co2e_tons":null,"capacity_factor":null,"emissions_intensity_kg_per_mwh":null},{"id":"AK_6377705_-17171243","name":"Gambell","state":"AK","county":"Nome","lat":63.77706,"lon":-171.71244,"primary_fuel_bucket":"oil","nerc_region":"AK","member_count":1,"member_oris_codes":[57062],"capacity_mw":1.8,"annual_net_gen_mwh":2463.0,"annual_co2_tons":1976.731,"annual_nox_tons":40.215,"annual_so2_tons":3.51,"annual_ch4_lbs":160.095,"annual_n2o_lbs":32.019,"annual_co2e_tons":1983.215,"capacity_factor":0.156,"emissions_intensity_kg_per_mwh":728.08},{"id":"AK_6211041_-14553252","name":"Glennallen","state":"AK","county":"Valdez Cordova","lat":62.11042,"lon":-145.53253,"primary_fuel_bucket":"oil","nerc_region":"AK","member_count":1,"member_oris_codes":[6305],"capacity_mw":9.2,"annual_net_gen_mwh":5685.0,"annual_co2_tons":5177.508,"annual_nox_tons":101.875,"annual_so2_tons":9.193,"annual_ch4_lbs":419.326,"annual_n2o_lbs":83.865,"annual_co2e_tons":5194.491,"capacity_factor":0.071,"emissions_intensity_kg_per_mwh":826.202},{"id":"AK_5947145_-13527654","name":"Goat Lake Hydro","state":"AK","county":"Skagway","lat":59.47145,"lon":-135.27655,"primary_fuel_bucket":"dam","nerc_region":"AK","member_count":2,"member_oris_codes":[7751,56542],"capacity_mw":7.0,"annual_net_gen_mwh":24525.0,"annual_co2_tons":null,"annual_nox_tons":null,"annual_so2_tons":null,"annual_ch4_lbs":null,"annual_n2o_lbs":null,"annual_co2e_tons":null,"capacity_factor":0.4,"emissions_intensity_kg_per_mwh":null},{"id":"AK_5826296_-13556905","name":"Hoonah","state":"AK","county":"Skagway Hoonah Angoon","lat":58.26296,"lon":-135.56905,"primary_fuel_bucket":"oil","nerc_region":"AK","member_count":2,"member_oris_codes":[65767,7463],"capacity_mw":3.4,"annual_net_gen_mwh":4559.0,"annual_co2_tons":3814.391,"annual_nox_tons":72.844,"annual_so2_tons":6.773,"annual_ch4_lbs":308.927,"annual_n2o_lbs":61.785,"annual_co2e_tons":3826.903,"capacity_factor":0.153,"emissions_intensity_kg_per_mwh":759.017},{"id":"AK_6656628_-14525305","name":"Gwitchyaa Zhee","state":"AK","county":"Yukon Koyukuk","lat":66.56629,"lon":-145.25305,"primary_fuel_bucket":"oil","nerc_region":"AK","member_count":1,"member_oris_codes":[7174],"capacity_mw":2.8,"annual_net_gen_mwh":2463.0,"annual_co2_tons":2376.697,"annual_nox_tons":46.766,"annual_so2_tons":4.22,"annual_ch4_lbs":192.489,"annual_n2o_lbs":38.498,"annual_co2e_tons":2384.493,"capacity_factor":0.1,"emissions_intensity_kg_per_mwh":875.397},{"id":"AK_5934521_-13537966","name":"Haines","state":"AK","county":"Haines","lat":59.34522,"lon":-135.37966,"primary_fuel_bucket":"oil","nerc_region":"AK","member_count":2,"member_oris_codes":[69,66],"capacity_mw":14.3,"annual_net_gen_mwh":4265.0,"annual_co2_tons":2169.946,"annual_nox_tons":42.515,"annual_so2_tons":3.854,"annual_ch4_lbs":175.743,"annual_n2o_lbs":35.149,"annual_co2e_tons":2177.064,"capacity_factor":0.034,"emissions_intensity_kg_per_mwh":461.558},{"id":"AK_6385420_-14894999","name":"Healy Power Plant","state":"AK","county":"Denali","lat":63.8542,"lon":-148.95,"primary_fuel_bucket":"coal","nerc_region":"AK","member_count":1,"member_oris_codes":[6288],"capacity_mw":92.8,"annual_net_gen_mwh":375778.0,"annual_co2_tons":169547.892,"annual_nox_tons":151.64,"annual_so2_tons":47.27,"annual_ch4_lbs":122916.09,"annual_n2o_lbs":17909.106,"annual_co2e_tons":173641.674,"capacity_factor":0.462,"emissions_intensity_kg_per_mwh":409.314},{"id":"AK_5521725_-13261003","name":"Hiilangaay Hydro","state":"AK","county":"Prince of Wales-Hyder","lat":55.21725,"lon":-132.61003,"primary_fuel_bucket":"dam","nerc_region":"AK","member_count":1,"member_oris_codes":[59037],"capacity_mw":5.0,"annual_net_gen_mwh":6417.0,"annual_co2_tons":null,"annual_nox_tons":null,"annual_so2_tons":null,"annual_ch4_lbs":null,"annual_n2o_lbs":null,"annual_co2e_tons":null,"capacity_factor":0.147,"emissions_intensity_kg_per_mwh":null},{"id":"AK_6159000_-14979000","name":"Houston Solar","state":"AK","county":"Matanuska Susitna","lat":61.59,"lon":-149.79,"primary_fuel_bucket":"solar","nerc_region":"AK","member_count":1,"member_oris_codes":[66887],"capacity_mw":6.0,"annual_net_gen_mwh":46.0,"annual_co2_tons":null,"annual_nox_tons":null,"annual_so2_tons":null,"annual_ch4_lbs":null,"annual_n2o_lbs":null,"annual_co2e_tons":null,"capacity_factor":0.001,"emissions_intensity_kg_per_mwh":null},{"id":"AK_6060075_-14564197","name":"Power Creek","state":"AK","county":"Valdez Cordova","lat":60.60075,"lon":-145.64198,"primary_fuel_bucket":"dam","nerc_region":"AK","member_count":2,"member_oris_codes":[7042,7862],"capacity_mw":7.2,"annual_net_gen_mwh":22104.0,"annual_co2_tons":null,"annual_nox_tons":null,"annual_so2_tons":null,"annual_ch4_lbs":null,"annual_n2o_lbs":null,"annual_co2e_tons":null,"capacity_factor":0.35,"emissions_intensity_kg_per_mwh":null},{"id":"AK_6128600_-14961000","name":"JBER Landfill Gas Power Plant","state":"AK","county":"Anchorage","lat":61.286,"lon":-149.61,"primary_fuel_bucket":"biomass","nerc_region":"AK","member_count":1,"member_oris_codes":[58380],"capacity_mw":11.5,"annual_net_gen_mwh":38920.0,"annual_co2_tons":1.143,"annual_nox_tons":0.0,"annual_so2_tons":6.767,"annual_ch4_lbs":0.04,"annual_n2o_lbs":0.004,"annual_co2e_tons":1.144,"capacity_factor":0.386,"emissions_intensity_kg_per_mwh":0.027},{"id":"AK_5704970_-13531280","name":"Jarvis Street","state":"AK","county":"Sitka","lat":57.0497,"lon":-135.3128,"primary_fuel_bucket":"oil","nerc_region":"AK","member_count":1,"member_oris_codes":[6801],"capacity_mw":25.6,"annual_net_gen_mwh":-835.0,"annual_co2_tons":112.122,"annual_nox_tons":2.219,"annual_so2_tons":0.199,"annual_ch4_lbs":9.081,"annual_n2o_lbs":1.816,"annual_co2e_tons":112.49,"capacity_factor":-0.004,"emissions_intensity_kg_per_mwh":null},{"id":"AK_5696298_-13392255","name":"Kake","state":"AK","county":"Petersburg","lat":56.96298,"lon":-133.92256,"primary_fuel_bucket":"oil","nerc_region":"AK","member_count":1,"member_oris_codes":[7464],"capacity_mw":3.1,"annual_net_gen_mwh":1510.0,"annual_co2_tons":1484.795,"annual_nox_tons":23.151,"annual_so2_tons":2.636,"annual_ch4_lbs":120.253,"annual_n2o_lbs":24.051,"annual_co2e_tons":1489.665,"capacity_factor":0.056,"emissions_intensity_kg_per_mwh":892.043},{"id":"AK_6690420_-16073365","name":"Noorvik","state":"AK","county":"Northwest Arctic","lat":66.9042,"lon":-160.73365,"primary_fuel_bucket":"oil","nerc_region":"AK","member_count":2,"member_oris_codes":[6323,6330],"capacity_mw":2.7,"annual_net_gen_mwh":3971.0,"annual_co2_tons":3212.046,"annual_nox_tons":65.342,"annual_so2_tons":5.703,"annual_ch4_lbs":260.143,"annual_n2o_lbs":52.029,"annual_co2e_tons":3222.582,"capacity_factor":0.168,"emissions_intensity_kg_per_mwh":733.8},{"id":"AK_5506168_-16231030","name":"King Cove","state":"AK","county":"Aleutians East","lat":55.06168,"lon":-162.3103,"primary_fuel_bucket":"dam","nerc_region":"AK","member_count":1,"member_oris_codes":[7493],"capacity_mw":3.0,"annual_net_gen_mwh":4479.0,"annual_co2_tons":646.932,"annual_nox_tons":22.086,"annual_so2_tons":0.608,"annual_ch4_lbs":62.223,"annual_n2o_lbs":12.445,"annual_co2e_tons":649.452,"capacity_factor":0.17,"emissions_intensity_kg_per_mwh":131.031},{"id":"AK_6772664_-16453844","name":"Kivalina","state":"AK","county":"Northwest Arctic","lat":67.72664,"lon":-164.53845,"primary_fuel_bucket":"oil","nerc_region":"AK","member_count":1,"member_oris_codes":[57065],"capacity_mw":1.5,"annual_net_gen_mwh":1682.0,"annual_co2_tons":1216.373,"annual_nox_tons":24.744,"annual_so2_tons":2.16,"annual_ch4_lbs":98.514,"annual_n2o_lbs":19.703,"annual_co2e_tons":1220.363,"capacity_factor":0.128,"emissions_intensity_kg_per_mwh":656.05},{"id":"AK_5779047_-15255993","name":"Kodiak Microgrid","state":"AK","county":"Kodiak Island","lat":57.79047,"lon":-152.55994,"primary_fuel_bucket":"oil","nerc_region":"AK","member_count":4,"member_oris_codes":[6281,7723,6282,60250],"capacity_mw":37.2,"annual_net_gen_mwh":0.0,"annual_co2_tons":null,"annual_nox_tons":null,"annual_so2_tons":null,"annual_ch4_lbs":81.893,"annual_n2o_lbs":16.379,"annual_co2e_tons":3.316,"capacity_factor":null,"emissions_intensity_kg_per_mwh":null},{"id":"AK_6303215_-16355310","name":"Kotlik","state":"AK","county":"Kusilvak","lat":63.03215,"lon":-163.55311,"primary_fuel_bucket":"oil","nerc_region":"AK","member_count":1,"member_oris_codes":[57064],"capacity_mw":1.4,"annual_net_gen_mwh":2048.0,"annual_co2_tons":1444.485,"annual_nox_tons":29.385,"annual_so2_tons":2.565,"annual_ch4_lbs":116.989,"annual_n2o_lbs":23.398,"annual_co2e_tons":1449.223,"capacity_factor":0.167,"emissions_intensity_kg_per_mwh":639.851},{"id":"AK_6683777_-16255694","name":"Kotzebue Hybrid","state":"AK","county":"NORTHWEST ARCTIC","lat":66.83778,"lon":-162.55694,"primary_fuel_bucket":"oil","nerc_region":"AK","member_count":1,"member_oris_codes":[6304],"capacity_mw":18.0,"annual_net_gen_mwh":24227.0,"annual_co2_tons":14034.499,"annual_nox_tons":271.935,"annual_so2_tons":24.92,"annual_ch4_lbs":1136.654,"annual_n2o_lbs":227.331,"annual_co2e_tons":14080.533,"capacity_factor":0.154,"emissions_intensity_kg_per_mwh":525.525},{"id":"AK_6493208_-16116710","name":"Koyuk","state":"AK","county":"Nome","lat":64.93209,"lon":-161.1671,"primary_fuel_bucket":"oil","nerc_region":"AK","member_count":1,"member_oris_codes":[57059],"capacity_mw":1.1,"annual_net_gen_mwh":1321.0,"annual_co2_tons":922.547,"annual_nox_tons":18.768,"annual_so2_tons":1.638,"annual_ch4_lbs":74.717,"annual_n2o_lbs":14.943,"annual_co2e_tons":925.573,"capacity_factor":0.137,"emissions_intensity_kg_per_mwh":633.55},{"id":"AK_6187818_-16208514","name":"Marshall","state":"AK","county":"Kusilvak","lat":61.87819,"lon":-162.08515,"primary_fuel_bucket":"oil","nerc_region":"AK","member_count":1,"member_oris_codes":[60244],"capacity_mw":1.1,"annual_net_gen_mwh":1587.0,"annual_co2_tons":1235.967,"annual_nox_tons":25.145,"annual_so2_tons":2.195,"annual_ch4_lbs":100.101,"annual_n2o_lbs":20.02,"annual_co2e_tons":1240.021,"capacity_factor":0.165,"emissions_intensity_kg_per_mwh":706.522},{"id":"AK_6295699_-15559499","name":"McGrath","state":"AK","county":"Yukon Koyukuk","lat":62.95699,"lon":-155.595,"primary_fuel_bucket":"oil","nerc_region":"AK","member_count":1,"member_oris_codes":[6555],"capacity_mw":1.6,"annual_net_gen_mwh":2022.0,"annual_co2_tons":1730.436,"annual_nox_tons":35.9,"annual_so2_tons":3.072,"annual_ch4_lbs":140.148,"annual_n2o_lbs":28.03,"annual_co2e_tons":1736.112,"capacity_factor":0.144,"emissions_intensity_kg_per_mwh":776.373},{"id":"AK_6202451_-16326078","name":"St Marys IC","state":"AK","county":"Bethel","lat":62.02452,"lon":-163.26078,"primary_fuel_bucket":"oil","nerc_region":"AK","member_count":3,"member_oris_codes":[6329,57058,6338],"capacity_mw":8.2,"annual_net_gen_mwh":7758.0,"annual_co2_tons":4912.829,"annual_nox_tons":99.938,"annual_so2_tons":8.723,"annual_ch4_lbs":402.01,"annual_n2o_lbs":80.402,"annual_co2e_tons":4929.11,"capacity_factor":0.108,"emissions_intensity_kg_per_mwh":574.484},{"id":"AK_6813795_-15174101","name":"NSB Anaktuvuk Pass","state":"AK","county":"North Slope","lat":68.13795,"lon":-151.74102,"primary_fuel_bucket":"oil","nerc_region":"AK","member_count":1,"member_oris_codes":[7487],"capacity_mw":2.7,"annual_net_gen_mwh":3744.0,"annual_co2_tons":3326.047,"annual_nox_tons":64.996,"annual_so2_tons":5.906,"annual_ch4_lbs":269.376,"annual_n2o_lbs":53.875,"annual_co2e_tons":3336.957,"capacity_factor":0.158,"emissions_intensity_kg_per_mwh":805.913},{"id":"AK_7048260_-15742519","name":"NSB Atqasuk Utility","state":"AK","county":"North Slope","lat":70.4826,"lon":-157.4252,"primary_fuel_bucket":"oil","nerc_region":"AK","member_count":1,"member_oris_codes":[7482],"capacity_mw":3.2,"annual_net_gen_mwh":2033.0,"annual_co2_tons":3153.329,"annual_nox_tons":61.622,"annual_so2_tons":5.599,"annual_ch4_lbs":255.388,"annual_n2o_lbs":51.078,"annual_co2e_tons":3163.672,"capacity_factor":0.073,"emissions_intensity_kg_per_mwh":1407.11},{"id":"AK_7012561_-14361903","name":"NSB Kaktovik Utility","state":"AK","county":"North Slope","lat":70.12562,"lon":-143.61903,"primary_fuel_bucket":"oil","nerc_region":"AK","member_count":1,"member_oris_codes":[7483],"capacity_mw":2.6,"annual_net_gen_mwh":4889.0,"annual_co2_tons":4233.566,"annual_nox_tons":82.732,"annual_so2_tons":7.517,"annual_ch4_lbs":342.876,"annual_n2o_lbs":68.575,"annual_co2e_tons":4247.452,"capacity_factor":0.215,"emissions_intensity_kg_per_mwh":785.565},{"id":"AK_7022056_-15099349","name":"NSB Nuiqsut Utility","state":"AK","county":"North Slope","lat":70.22056,"lon":-150.99349,"primary_fuel_bucket":"gas","nerc_region":"AK","member_count":1,"member_oris_codes":[7484],"capacity_mw":4.4,"annual_net_gen_mwh":7410.0,"annual_co2_tons":6650.899,"annual_nox_tons":136.505,"annual_so2_tons":6.959,"annual_ch4_lbs":315.627,"annual_n2o_lbs":47.478,"annual_co2e_tons":6661.609,"capacity_factor":0.192,"emissions_intensity_kg_per_mwh":814.25},{"id":"AK_6834842_-16673721","name":"NSB Point Hope Utility","state":"AK","county":"North Slope","lat":68.34842,"lon":-166.73721,"primary_fuel_bucket":"oil","nerc_region":"AK","member_count":1,"member_oris_codes":[7485],"capacity_mw":3.1,"annual_net_gen_mwh":6725.0,"annual_co2_tons":6022.882,"annual_nox_tons":117.701,"annual_so2_tons":10.694,"annual_ch4_lbs":487.793,"annual_n2o_lbs":97.559,"annual_co2e_tons":6042.638,"capacity_factor":0.248,"emissions_intensity_kg_per_mwh":812.471},{"id":"AK_6974083_-16300583","name":"NSB Point Lay Utility","state":"AK","county":"North Slope","lat":69.74083,"lon":-163.00583,"primary_fuel_bucket":"oil","nerc_region":"AK","member_count":1,"member_oris_codes":[7486],"capacity_mw":2.4,"annual_net_gen_mwh":3572.0,"annual_co2_tons":3207.148,"annual_nox_tons":62.676,"annual_so2_tons":5.694,"annual_ch4_lbs":259.747,"annual_n2o_lbs":51.949,"annual_co2e_tons":3217.668,"capacity_factor":0.17,"emissions_intensity_kg_per_mwh":814.523},{"id":"AK_7064287_-16002046","name":"NSB Wainwright Utility","state":"AK","county":"North Slope","lat":70.64288,"lon":-160.02046,"primary_fuel_bucket":"oil","nerc_region":"AK","member_count":1,"member_oris_codes":[7488],"capacity_mw":3.0,"annual_net_gen_mwh":6839.0,"annual_co2_tons":6266.075,"annual_nox_tons":122.453,"annual_so2_tons":11.126,"annual_ch4_lbs":507.489,"annual_n2o_lbs":101.498,"annual_co2e_tons":6286.628,"capacity_factor":0.26,"emissions_intensity_kg_per_mwh":831.187},{"id":"AK_5873041_-15700722","name":"Naknek","state":"AK","county":"Bristol Bay","lat":58.73042,"lon":-157.00722,"primary_fuel_bucket":"oil","nerc_region":"AK","member_count":1,"member_oris_codes":[6301],"capacity_mw":16.5,"annual_net_gen_mwh":23477.9,"annual_co2_tons":10150.897,"annual_nox_tons":198.368,"annual_so2_tons":18.024,"annual_ch4_lbs":822.121,"annual_n2o_lbs":164.424,"annual_co2e_tons":10184.193,"capacity_factor":0.162,"emissions_intensity_kg_per_mwh":392.231},{"id":"AK_5944835_-15732552","name":"New Stuyahok","state":"AK","county":"Dillingham","lat":59.44836,"lon":-157.32553,"primary_fuel_bucket":"oil","nerc_region":"AK","member_count":1,"member_oris_codes":[60245],"capacity_mw":1.8,"annual_net_gen_mwh":1871.0,"annual_co2_tons":1609.494,"annual_nox_tons":32.742,"annual_so2_tons":2.858,"annual_ch4_lbs":130.353,"annual_n2o_lbs":26.071,"annual_co2e_tons":1614.773,"capacity_factor":0.119,"emissions_intensity_kg_per_mwh":780.39},{"id":"AK_5989905_-15469873","name":"Newhalen","state":"AK","county":"Lake and Peninsula","lat":59.89905,"lon":-154.69873,"primary_fuel_bucket":"dam","nerc_region":"AK","member_count":1,"member_oris_codes":[7183],"capacity_mw":1.7,"annual_net_gen_mwh":3174.0,"annual_co2_tons":44.181,"annual_nox_tons":0.867,"annual_so2_tons":0.078,"annual_ch4_lbs":3.578,"annual_n2o_lbs":0.716,"annual_co2e_tons":44.326,"capacity_factor":0.213,"emissions_intensity_kg_per_mwh":12.628},{"id":"AK_6757093_-16296572","name":"Noatak","state":"AK","county":"Northwest Arctic","lat":67.57093,"lon":-162.96573,"primary_fuel_bucket":"oil","nerc_region":"AK","member_count":1,"member_oris_codes":[57051],"capacity_mw":1.3,"annual_net_gen_mwh":1912.0,"annual_co2_tons":1478.354,"annual_nox_tons":30.073,"annual_so2_tons":2.625,"annual_ch4_lbs":119.732,"annual_n2o_lbs":23.946,"annual_co2e_tons":1483.203,"capacity_factor":0.168,"emissions_intensity_kg_per_mwh":701.433},{"id":"AK_6296170_-14193719","name":"Northway","state":"AK","county":"Southeast Fairbanks","lat":62.9617,"lon":-141.9372,"primary_fuel_bucket":"oil","nerc_region":"AK","member_count":1,"member_oris_codes":[7169],"capacity_mw":1.1,"annual_net_gen_mwh":1131.0,"annual_co2_tons":1010.415,"annual_nox_tons":19.795,"annual_so2_tons":1.794,"annual_ch4_lbs":81.833,"annual_n2o_lbs":16.367,"annual_co2e_tons":1013.729,"capacity_factor":0.117,"emissions_intensity_kg_per_mwh":810.463},{"id":"AK_6055588_-14575298","name":"Orca","state":"AK","county":"Valdez Cordova","lat":60.55589,"lon":-145.75298,"primary_fuel_bucket":"oil","nerc_region":"AK","member_count":1,"member_oris_codes":[789],"capacity_mw":12.2,"annual_net_gen_mwh":6290.0,"annual_co2_tons":7886.183,"annual_nox_tons":155.174,"annual_so2_tons":14.002,"annual_ch4_lbs":638.702,"annual_n2o_lbs":127.74,"annual_co2e_tons":7912.05,"capacity_factor":0.059,"emissions_intensity_kg_per_mwh":1137.397},{"id":"AK_5795719_-13622009","name":"Pelican","state":"AK","county":"Hoonah-Angoon","lat":57.9572,"lon":-136.22009,"primary_fuel_bucket":"dam","nerc_region":"AK","member_count":1,"member_oris_codes":[6702],"capacity_mw":2.4,"annual_net_gen_mwh":1581.0,"annual_co2_tons":254.217,"annual_nox_tons":4.678,"annual_so2_tons":0.452,"annual_ch4_lbs":20.589,"annual_n2o_lbs":4.118,"annual_co2e_tons":255.051,"capacity_factor":0.075,"emissions_intensity_kg_per_mwh":145.871},{"id":"AK_5681104_-13295709","name":"Petersburg","state":"AK","county":"Petersburg","lat":56.81104,"lon":-132.95709,"primary_fuel_bucket":"oil","nerc_region":"AK","member_count":1,"member_oris_codes":[91],"capacity_mw":16.3,"annual_net_gen_mwh":780.0,"annual_co2_tons":621.454,"annual_nox_tons":12.226,"annual_so2_tons":1.103,"annual_ch4_lbs":50.332,"annual_n2o_lbs":10.066,"annual_co2e_tons":623.492,"capacity_factor":0.005,"emissions_intensity_kg_per_mwh":722.788},{"id":"AK_5778690_-15244059","name":"Pillar Mountain Wind Project Microgrid","state":"AK","county":"Kodiak Island","lat":57.7869,"lon":-152.4406,"primary_fuel_bucket":"wind","nerc_region":"AK","member_count":1,"member_oris_codes":[57187],"capacity_mw":9.0,"annual_net_gen_mwh":24073.0,"annual_co2_tons":null,"annual_nox_tons":null,"annual_so2_tons":null,"annual_ch4_lbs":null,"annual_n2o_lbs":null,"annual_co2e_tons":null,"capacity_factor":0.305,"emissions_intensity_kg_per_mwh":null},{"id":"AK_5974743_-16191064","name":"Quinhagak","state":"AK","county":"Bethel","lat":59.74744,"lon":-161.91065,"primary_fuel_bucket":"oil","nerc_region":"AK","member_count":1,"member_oris_codes":[57057],"capacity_mw":1.7,"annual_net_gen_mwh":2409.0,"annual_co2_tons":1482.916,"annual_nox_tons":30.168,"annual_so2_tons":2.633,"annual_ch4_lbs":120.101,"annual_n2o_lbs":24.02,"annual_co2e_tons":1487.78,"capacity_factor":0.162,"emissions_intensity_kg_per_mwh":558.439},{"id":"AK_5533972_-16049722","name":"Sand Point","state":"AK","county":"Aleutians East","lat":55.33972,"lon":-160.49722,"primary_fuel_bucket":"oil","nerc_region":"AK","member_count":1,"member_oris_codes":[1],"capacity_mw":4.4,"annual_net_gen_mwh":3301.0,"annual_co2_tons":2644.244,"annual_nox_tons":51.623,"annual_so2_tons":4.695,"annual_ch4_lbs":214.157,"annual_n2o_lbs":42.831,"annual_co2e_tons":2652.917,"capacity_factor":0.086,"emissions_intensity_kg_per_mwh":726.694},{"id":"AK_6369526_-17047566","name":"Savoonga","state":"AK","county":"Nome","lat":63.69527,"lon":-170.47566,"primary_fuel_bucket":"oil","nerc_region":"AK","member_count":1,"member_oris_codes":[57052],"capacity_mw":1.7,"annual_net_gen_mwh":2410.0,"annual_co2_tons":1868.135,"annual_nox_tons":38.003,"annual_so2_tons":3.317,"annual_ch4_lbs":151.3,"annual_n2o_lbs":30.26,"annual_co2e_tons":1874.263,"capacity_factor":0.162,"emissions_intensity_kg_per_mwh":703.213},{"id":"AK_6660677_-16001480","name":"Selawik","state":"AK","county":"Northwest Arctic","lat":66.60678,"lon":-160.01481,"primary_fuel_bucket":"oil","nerc_region":"AK","member_count":1,"member_oris_codes":[6341],"capacity_mw":2.2,"annual_net_gen_mwh":2790.0,"annual_co2_tons":2210.124,"annual_nox_tons":44.959,"annual_so2_tons":3.924,"annual_ch4_lbs":178.998,"annual_n2o_lbs":35.8,"annual_co2e_tons":2217.373,"capacity_factor":0.145,"emissions_intensity_kg_per_mwh":718.635},{"id":"AK_5943954_-15171343","name":"Seldovia","state":"AK","county":"Kenai Peninsula","lat":59.43954,"lon":-151.71344,"primary_fuel_bucket":"oil","nerc_region":"AK","member_count":1,"member_oris_codes":[6283],"capacity_mw":2.2,"annual_net_gen_mwh":17.0,"annual_co2_tons":12.576,"annual_nox_tons":0.242,"annual_so2_tons":0.022,"annual_ch4_lbs":1.019,"annual_n2o_lbs":0.204,"annual_co2e_tons":12.617,"capacity_factor":0.001,"emissions_intensity_kg_per_mwh":671.103},{"id":"AK_6013092_-14943501","name":"Seward (AK)","state":"AK","county":"Kenai Peninsula","lat":60.13092,"lon":-149.43501,"primary_fuel_bucket":"oil","nerc_region":"AK","member_count":1,"member_oris_codes":[92],"capacity_mw":15.6,"annual_net_gen_mwh":507.0,"annual_co2_tons":661.552,"annual_nox_tons":13.086,"annual_so2_tons":1.174,"annual_ch4_lbs":53.579,"annual_n2o_lbs":10.716,"annual_co2e_tons":663.722,"capacity_factor":0.004,"emissions_intensity_kg_per_mwh":1183.728},{"id":"AK_6625507_-16607358","name":"Shishmaref","state":"AK","county":"Nome","lat":66.25507,"lon":-166.07359,"primary_fuel_bucket":"oil","nerc_region":"AK","member_count":1,"member_oris_codes":[6345],"capacity_mw":1.5,"annual_net_gen_mwh":1766.0,"annual_co2_tons":1492.144,"annual_nox_tons":30.355,"annual_so2_tons":2.649,"annual_ch4_lbs":120.849,"annual_n2o_lbs":24.17,"annual_co2e_tons":1497.038,"capacity_factor":0.134,"emissions_intensity_kg_per_mwh":766.507},{"id":"AK_6259275_-14358886","name":"Slana Generating Station","state":"AK","county":"Southeast Fairbanks","lat":62.59276,"lon":-143.58887,"primary_fuel_bucket":"oil","nerc_region":"AK","member_count":1,"member_oris_codes":[61685],"capacity_mw":1.2,"annual_net_gen_mwh":1287.0,"annual_co2_tons":1198.647,"annual_nox_tons":23.487,"annual_so2_tons":2.128,"annual_ch4_lbs":97.078,"annual_n2o_lbs":19.416,"annual_co2e_tons":1202.579,"capacity_factor":0.122,"emissions_intensity_kg_per_mwh":844.906},{"id":"AK_6450533_-16542981","name":"Snake River","state":"AK","county":"Nome","lat":64.50533,"lon":-165.42981,"primary_fuel_bucket":"oil","nerc_region":"AK","member_count":1,"member_oris_codes":[90],"capacity_mw":18.4,"annual_net_gen_mwh":null,"annual_co2_tons":null,"annual_nox_tons":null,"annual_so2_tons":null,"annual_ch4_lbs":null,"annual_n2o_lbs":null,"annual_co2e_tons":null,"capacity_factor":null,"emissions_intensity_kg_per_mwh":null},{"id":"AK_6349927_-16216231","name":"Stebbins","state":"AK","county":"Nome","lat":63.49927,"lon":-162.16231,"primary_fuel_bucket":"oil","nerc_region":"AK","member_count":2,"member_oris_codes":[57061,57055],"capacity_mw":2.7,"annual_net_gen_mwh":3531.0,"annual_co2_tons":2673.152,"annual_nox_tons":54.38,"annual_so2_tons":4.746,"annual_ch4_lbs":216.499,"annual_n2o_lbs":43.3,"annual_co2e_tons":2681.92,"capacity_factor":0.149,"emissions_intensity_kg_per_mwh":686.787},{"id":"AK_7021763_-14842513","name":"TNSG North Plant","state":"AK","county":"North Slope","lat":70.21764,"lon":-148.42514,"primary_fuel_bucket":"gas","nerc_region":"AK","member_count":2,"member_oris_codes":[58278,58117],"capacity_mw":33.5,"annual_net_gen_mwh":50151.0,"annual_co2_tons":40004.168,"annual_nox_tons":109.676,"annual_so2_tons":1.094,"annual_ch4_lbs":1509.023,"annual_n2o_lbs":150.586,"annual_co2e_tons":40045.247,"capacity_factor":0.171,"emissions_intensity_kg_per_mwh":723.638},{"id":"AK_5768610_-15289500","name":"Terror Lake Microgrid","state":"AK","county":"Kodiak Island","lat":57.6861,"lon":-152.895,"primary_fuel_bucket":"dam","nerc_region":"AK","member_count":1,"member_oris_codes":[71],"capacity_mw":33.6,"annual_net_gen_mwh":137666.0,"annual_co2_tons":null,"annual_nox_tons":null,"annual_so2_tons":null,"annual_ch4_lbs":null,"annual_n2o_lbs":null,"annual_co2e_tons":null,"capacity_factor":0.468,"emissions_intensity_kg_per_mwh":null},{"id":"AK_5905974_-16038027","name":"Togiak","state":"AK","county":"Dillingham","lat":59.05974,"lon":-160.38028,"primary_fuel_bucket":"oil","nerc_region":"AK","member_count":1,"member_oris_codes":[6348],"capacity_mw":2.8,"annual_net_gen_mwh":3159.0,"annual_co2_tons":2423.508,"annual_nox_tons":49.303,"annual_so2_tons":4.303,"annual_ch4_lbs":196.28,"annual_n2o_lbs":39.256,"annual_co2e_tons":2431.457,"capacity_factor":0.129,"emissions_intensity_kg_per_mwh":695.97},{"id":"AK_6333552_-14299996","name":"Tok","state":"AK","county":"Southeast Fairbanks","lat":63.33552,"lon":-142.99997,"primary_fuel_bucket":"oil","nerc_region":"AK","member_count":1,"member_oris_codes":[406],"capacity_mw":7.8,"annual_net_gen_mwh":11287.0,"annual_co2_tons":8829.714,"annual_nox_tons":172.994,"annual_so2_tons":15.678,"annual_ch4_lbs":715.118,"annual_n2o_lbs":143.024,"annual_co2e_tons":8858.676,"capacity_factor":0.165,"emissions_intensity_kg_per_mwh":709.682},{"id":"AK_6053014_-16510857","name":"Toksook Bay","state":"AK","county":"Bethel","lat":60.53014,"lon":-165.10858,"primary_fuel_bucket":"oil","nerc_region":"AK","member_count":1,"member_oris_codes":[57067],"capacity_mw":2.1,"annual_net_gen_mwh":3855.0,"annual_co2_tons":2859.263,"annual_nox_tons":58.165,"annual_so2_tons":5.077,"annual_ch4_lbs":231.572,"annual_n2o_lbs":46.314,"annual_co2e_tons":2868.642,"capacity_factor":0.21,"emissions_intensity_kg_per_mwh":672.862},{"id":"AK_5621640_-13150434","name":"Tyee Lake Hydroelectric Facility","state":"AK","county":"Wrangell","lat":56.2164,"lon":-131.50434,"primary_fuel_bucket":"dam","nerc_region":"AK","member_count":1,"member_oris_codes":[61166],"capacity_mw":22.6,"annual_net_gen_mwh":119089.0,"annual_co2_tons":null,"annual_nox_tons":null,"annual_so2_tons":null,"annual_ch4_lbs":null,"annual_n2o_lbs":null,"annual_co2e_tons":null,"capacity_factor":0.602,"emissions_intensity_kg_per_mwh":null},{"id":"AK_6387678_-16079041","name":"Unalakleet","state":"AK","county":"Nome","lat":63.87679,"lon":-160.79041,"primary_fuel_bucket":"oil","nerc_region":"AK","member_count":1,"member_oris_codes":[6299],"capacity_mw":2.0,"annual_net_gen_mwh":3037.0,"annual_co2_tons":2552.864,"annual_nox_tons":46.992,"annual_so2_tons":4.533,"annual_ch4_lbs":206.756,"annual_n2o_lbs":41.351,"annual_co2e_tons":2561.238,"capacity_factor":0.173,"emissions_intensity_kg_per_mwh":762.568},{"id":"AK_6152685_-16034812","name":"Upper Kalskag","state":"AK","county":"Bethel","lat":61.52686,"lon":-160.34813,"primary_fuel_bucket":"oil","nerc_region":"AK","member_count":1,"member_oris_codes":[57054],"capacity_mw":1.1,"annual_net_gen_mwh":1515.0,"annual_co2_tons":1183.756,"annual_nox_tons":24.085,"annual_so2_tons":2.102,"annual_ch4_lbs":95.872,"annual_n2o_lbs":19.174,"annual_co2e_tons":1187.639,"capacity_factor":0.157,"emissions_intensity_kg_per_mwh":708.835},{"id":"AK_6110710_-14630880","name":"Valdez","state":"AK","county":"Valdez Cordova","lat":61.1071,"lon":-146.3088,"primary_fuel_bucket":"oil","nerc_region":"AK","member_count":2,"member_oris_codes":[6306,7841],"capacity_mw":13.9,"annual_net_gen_mwh":32712.0,"annual_co2_tons":23604.391,"annual_nox_tons":214.928,"annual_so2_tons":24.372,"annual_ch4_lbs":13808.182,"annual_n2o_lbs":1881.451,"annual_co2e_tons":24046.999,"capacity_factor":0.269,"emissions_intensity_kg_per_mwh":654.608},{"id":"AK_5646097_-13237943","name":"Wrangell","state":"AK","county":"Wrangell","lat":56.46098,"lon":-132.37944,"primary_fuel_bucket":"oil","nerc_region":"AK","member_count":1,"member_oris_codes":[95],"capacity_mw":12.0,"annual_net_gen_mwh":890.0,"annual_co2_tons":537.833,"annual_nox_tons":11.155,"annual_so2_tons":0.955,"annual_ch4_lbs":43.559,"annual_n2o_lbs":8.712,"annual_co2e_tons":539.597,"capacity_factor":0.008,"emissions_intensity_kg_per_mwh":548.219},{"id":"AK_5954455_-13972430","name":"Yakutat","state":"AK","county":"Yakutat","lat":59.54455,"lon":-139.72431,"primary_fuel_bucket":"oil","nerc_region":"AK","member_count":1,"member_oris_codes":[6637],"capacity_mw":3.8,"annual_net_gen_mwh":6238.0,"annual_co2_tons":4800.715,"annual_nox_tons":97.662,"annual_so2_tons":8.524,"annual_ch4_lbs":388.81,"annual_n2o_lbs":77.762,"annual_co2e_tons":4816.462,"capacity_factor":0.187,"emissions_intensity_kg_per_mwh":698.162},{"id":"AL_3357547_-8678929","name":"Sloss Industries Corp","state":"AL","county":"Jefferson","lat":33.57548,"lon":-86.7893,"primary_fuel_bucket":"gas","nerc_region":"SERC","member_count":2,"member_oris_codes":[56076,50359],"capacity_mw":28.8,"annual_net_gen_mwh":83.0,"annual_co2_tons":26.601,"annual_nox_tons":0.023,"annual_so2_tons":0.0,"annual_ch4_lbs":1.004,"annual_n2o_lbs":0.1,"annual_co2e_tons":26.629,"capacity_factor":0.0,"emissions_intensity_kg_per_mwh":290.747},{"id":"AL_3308338_-8609288","name":"Hillabee Energy Center","state":"AL","county":"Talladega","lat":33.08338,"lon":-86.09289,"primary_fuel_bucket":"gas","nerc_region":"SERC","member_count":2,"member_oris_codes":[56018,55411],"capacity_mw":921.4,"annual_net_gen_mwh":4125187.0,"annual_co2_tons":1811662.367,"annual_nox_tons":128.474,"annual_so2_tons":9.14,"annual_ch4_lbs":66903.251,"annual_n2o_lbs":6676.293,"annual_co2e_tons":1813483.621,"capacity_factor":0.511,"emissions_intensity_kg_per_mwh":398.409},{"id":"AL_3362672_-8596948","name":"ANAD Solar Array","state":"AL","county":"Calhoun","lat":33.62673,"lon":-85.96948,"primary_fuel_bucket":"solar","nerc_region":"SERC","member_count":1,"member_oris_codes":[60680],"capacity_mw":7.4,"annual_net_gen_mwh":10742.0,"annual_co2_tons":null,"annual_nox_tons":null,"annual_so2_tons":null,"annual_ch4_lbs":null,"annual_n2o_lbs":null,"annual_co2e_tons":null,"capacity_factor":0.166,"emissions_intensity_kg_per_mwh":null},{"id":"AL_3155146_-8762556","name":"Alabama Pine Pulp","state":"AL","county":"Monroe","lat":31.55147,"lon":-87.62557,"primary_fuel_bucket":"biomass","nerc_region":"SERC","member_count":3,"member_oris_codes":[54429,10216,55044],"capacity_mw":161.4,"annual_net_gen_mwh":849607.2,"annual_co2_tons":72076.642,"annual_nox_tons":352.712,"annual_so2_tons":1288.128,"annual_ch4_lbs":68022.259,"annual_n2o_lbs":24873.516,"annual_co2e_tons":76324.694,"capacity_factor":0.601,"emissions_intensity_kg_per_mwh":76.961},{"id":"AL_3436338_-8622388","name":"Albertville","state":"AL","county":"Marshall","lat":34.36339,"lon":-86.22389,"primary_fuel_bucket":"oil","nerc_region":"SERC","member_count":1,"member_oris_codes":[7924],"capacity_mw":4.0,"annual_net_gen_mwh":0.0,"annual_co2_tons":null,"annual_nox_tons":null,"annual_so2_tons":null,"annual_ch4_lbs":0.0,"annual_n2o_lbs":0.0,"annual_co2e_tons":0.0,"capacity_factor":null,"emissions_intensity_kg_per_mwh":null},{"id":"AL_3335698_-8740316","name":"Bankhead Dam","state":"AL","county":"Tuscaloosa","lat":33.35698,"lon":-87.40316,"primary_fuel_bucket":"dam","nerc_region":"SERC","member_count":2,"member_oris_codes":[2,12],"capacity_mw":100.8,"annual_net_gen_mwh":293175.0,"annual_co2_tons":null,"annual_nox_tons":null,"annual_so2_tons":null,"annual_ch4_lbs":null,"annual_n2o_lbs":null,"annual_co2e_tons":null,"capacity_factor":0.332,"emissions_intensity_kg_per_mwh":null},{"id":"AL_3093209_-8804647","name":"Barry","state":"AL","county":"Mobile","lat":30.9321,"lon":-88.04647,"primary_fuel_bucket":"gas","nerc_region":"SERC","member_count":8,"member_oris_codes":[3,56,55241,62449,7063,7721,54550,7697],"capacity_mw":5534.1,"annual_net_gen_mwh":15133548.5,"annual_co2_tons":8374801.102,"annual_nox_tons":2384.83,"annual_so2_tons":299.728,"annual_ch4_lbs":610263.355,"annual_n2o_lbs":78979.89,"annual_co2e_tons":8393809.624,"capacity_factor":0.312,"emissions_intensity_kg_per_mwh":502.03},{"id":"AL_3263630_-8508515","name":"Bartletts Ferry","state":"AL","county":"Lee","lat":32.6363,"lon":-85.08515,"primary_fuel_bucket":"dam","nerc_region":"SERC","member_count":2,"member_oris_codes":[702,707],"capacity_mw":211.6,"annual_net_gen_mwh":496340.0,"annual_co2_tons":null,"annual_nox_tons":null,"annual_so2_tons":null,"annual_ch4_lbs":null,"annual_n2o_lbs":null,"annual_co2e_tons":null,"capacity_factor":0.268,"emissions_intensity_kg_per_mwh":null},{"id":"AL_3470920_-8592780","name":"Bellefonte","state":"AL","county":"Jackson","lat":34.7092,"lon":-85.9278,"primary_fuel_bucket":"oil","nerc_region":"SERC","member_count":1,"member_oris_codes":[6150],"capacity_mw":14.0,"annual_net_gen_mwh":null,"annual_co2_tons":null,"annual_nox_tons":null,"annual_so2_tons":null,"annual_ch4_lbs":null,"annual_n2o_lbs":null,"annual_co2e_tons":null,"capacity_factor":null,"emissions_intensity_kg_per_mwh":null},{"id":"AL_3219697_-8632734","name":"Black Bear Solar 1","state":"AL","county":"Montgomery","lat":32.19697,"lon":-86.32734,"primary_fuel_bucket":"solar","nerc_region":"SERC","member_count":1,"member_oris_codes":[63765],"capacity_mw":100.0,"annual_net_gen_mwh":201925.0,"annual_co2_tons":null,"annual_nox_tons":null,"annual_so2_tons":null,"annual_ch4_lbs":null,"annual_n2o_lbs":null,"annual_co2e_tons":null,"capacity_factor":0.231,"emissions_intensity_kg_per_mwh":null},{"id":"AL_3470420_-8711890","name":"Browns Ferry","state":"AL","county":"Limestone","lat":34.7042,"lon":-87.1189,"primary_fuel_bucket":"nuclear","nerc_region":"SERC","member_count":1,"member_oris_codes":[46],"capacity_mw":3854.0,"annual_net_gen_mwh":30820510.0,"annual_co2_tons":null,"annual_nox_tons":null,"annual_so2_tons":null,"annual_ch4_lbs":null,"annual_n2o_lbs":null,"annual_co2e_tons":null,"capacity_factor":0.913,"emissions_intensity_kg_per_mwh":null},{"id":"AL_3358829_-8597310","name":"Calhoun Generating Facility","state":"AL","county":"Calhoun","lat":33.5883,"lon":-85.9731,"primary_fuel_bucket":"gas","nerc_region":"SERC","member_count":1,"member_oris_codes":[55409],"capacity_mw":748.0,"annual_net_gen_mwh":25537.0,"annual_co2_tons":29578.85,"annual_nox_tons":17.757,"annual_so2_tons":0.143,"annual_ch4_lbs":1435.462,"annual_n2o_lbs":237.491,"annual_co2e_tons":29630.414,"capacity_factor":0.004,"emissions_intensity_kg_per_mwh":1050.769},{"id":"AL_3248373_-8668985","name":"E B Harris Generating Plant","state":"AL","county":"Autauga","lat":32.48374,"lon":-86.68986,"primary_fuel_bucket":"gas","nerc_region":"SERC","member_count":5,"member_oris_codes":[55440,7897,54096,7698,55271],"capacity_mw":3371.7,"annual_net_gen_mwh":14919138.3,"annual_co2_tons":6225646.921,"annual_nox_tons":629.252,"annual_so2_tons":273.022,"annual_ch4_lbs":234257.962,"annual_n2o_lbs":26701.003,"annual_co2e_tons":6232464.415,"capacity_factor":0.505,"emissions_intensity_kg_per_mwh":378.562},{"id":"AL_3474389_-8784860","name":"Colbert","state":"AL","county":"Colbert","lat":34.7439,"lon":-87.8486,"primary_fuel_bucket":"gas","nerc_region":"SERC","member_count":1,"member_oris_codes":[47],"capacity_mw":1169.6,"annual_net_gen_mwh":78686.0,"annual_co2_tons":37420.817,"annual_nox_tons":61.77,"annual_so2_tons":3.888,"annual_ch4_lbs":8493.272,"annual_n2o_lbs":847.546,"annual_co2e_tons":37652.023,"capacity_factor":0.008,"emissions_intensity_kg_per_mwh":431.431},{"id":"AL_3126235_-8540273","name":"Crestwood Dothan","state":"AL","county":"Houston","lat":31.26236,"lon":-85.40274,"primary_fuel_bucket":"oil","nerc_region":"SERC","member_count":1,"member_oris_codes":[54985],"capacity_mw":8.6,"annual_net_gen_mwh":null,"annual_co2_tons":null,"annual_nox_tons":null,"annual_so2_tons":null,"annual_ch4_lbs":null,"annual_n2o_lbs":null,"annual_co2e_tons":null,"capacity_factor":null,"emissions_intensity_kg_per_mwh":null},{"id":"AL_3494974_-8686805","name":"Cumblerland Land Holdings, LLC","state":"AL","county":"Limestone","lat":34.94974,"lon":-86.86805,"primary_fuel_bucket":"solar","nerc_region":"SERC","member_count":1,"member_oris_codes":[61924],"capacity_mw":14.7,"annual_net_gen_mwh":28614.0,"annual_co2_tons":null,"annual_nox_tons":null,"annual_so2_tons":null,"annual_ch4_lbs":null,"annual_n2o_lbs":null,"annual_co2e_tons":null,"capacity_factor":0.222,"emissions_intensity_kg_per_mwh":null},{"id":"AL_3463445_-8704265","name":"Decatur Energy Center","state":"AL","county":"Morgan","lat":34.63445,"lon":-87.04265,"primary_fuel_bucket":"gas","nerc_region":"SERC","member_count":2,"member_oris_codes":[55292,55293],"capacity_mw":1802.4,"annual_net_gen_mwh":7547302.0,"annual_co2_tons":3064332.612,"annual_nox_tons":196.264,"annual_so2_tons":15.452,"annual_ch4_lbs":118088.199,"annual_n2o_lbs":11784.052,"annual_co2e_tons":3067547.234,"capacity_factor":0.478,"emissions_intensity_kg_per_mwh":368.332},{"id":"AL_3462361_-8710111","name":"Decatur-Morgan Co LFG Recovery Project","state":"AL","county":"Morgan","lat":34.62361,"lon":-87.10111,"primary_fuel_bucket":"biomass","nerc_region":"SERC","member_count":1,"member_oris_codes":[58061],"capacity_mw":1.6,"annual_net_gen_mwh":10736.0,"annual_co2_tons":0.0,"annual_nox_tons":0.0,"annual_so2_tons":1.984,"annual_ch4_lbs":0.0,"annual_n2o_lbs":0.0,"annual_co2e_tons":0.0,"capacity_factor":0.766,"emissions_intensity_kg_per_mwh":null},{"id":"AL_3324421_-8645805","name":"E C Gaston","state":"AL","county":"Shelby","lat":33.24421,"lon":-86.45806,"primary_fuel_bucket":"coal","nerc_region":"SERC","member_count":1,"member_oris_codes":[26],"capacity_mw":2034.0,"annual_net_gen_mwh":3399765.0,"annual_co2_tons":3277111.004,"annual_nox_tons":2318.77,"annual_so2_tons":847.637,"annual_ch4_lbs":490651.763,"annual_n2o_lbs":69514.903,"annual_co2e_tons":3293190.853,"capacity_factor":0.191,"emissions_intensity_kg_per_mwh":874.456},{"id":"AL_3133114_-8573019","name":"Fort Rucker Solar Array","state":"AL","county":"Dale","lat":31.33115,"lon":-85.73019,"primary_fuel_bucket":"solar","nerc_region":"SERC","member_count":1,"member_oris_codes":[60679],"capacity_mw":10.6,"annual_net_gen_mwh":13869.0,"annual_co2_tons":null,"annual_nox_tons":null,"annual_so2_tons":null,"annual_ch4_lbs":null,"annual_n2o_lbs":null,"annual_co2e_tons":null,"capacity_factor":0.149,"emissions_intensity_kg_per_mwh":null},{"id":"AL_3138222_-8649888","name":"Point A","state":"AL","county":"Covington","lat":31.38222,"lon":-86.49889,"primary_fuel_bucket":"dam","nerc_region":"SERC","member_count":2,"member_oris_codes":[53,55],"capacity_mw":8.2,"annual_net_gen_mwh":20651.0,"annual_co2_tons":null,"annual_nox_tons":null,"annual_so2_tons":null,"annual_ch4_lbs":null,"annual_n2o_lbs":null,"annual_co2e_tons":null,"capacity_factor":0.287,"emissions_intensity_kg_per_mwh":null},{"id":"AL_3107700_-8711160","name":"Georgia-Pacific Brewton Mill","state":"AL","county":"Escambia","lat":31.077,"lon":-87.1116,"primary_fuel_bucket":"biomass","nerc_region":"SERC","member_count":1,"member_oris_codes":[54789],"capacity_mw":103.4,"annual_net_gen_mwh":490545.3,"annual_co2_tons":92486.73,"annual_nox_tons":235.816,"annual_so2_tons":454.619,"annual_ch4_lbs":13084.95,"annual_n2o_lbs":7100.016,"annual_co2e_tons":93610.672,"capacity_factor":0.542,"emissions_intensity_kg_per_mwh":171.039},{"id":"AL_3234044_-8800055","name":"Georgia-Pacific Consr Prods LP-Naheola","state":"AL","county":"Choctaw","lat":32.34045,"lon":-88.00055,"primary_fuel_bucket":"biomass","nerc_region":"SERC","member_count":2,"member_oris_codes":[10699,54763],"capacity_mw":134.9,"annual_net_gen_mwh":574456.5,"annual_co2_tons":23737.574,"annual_nox_tons":209.836,"annual_so2_tons":625.286,"annual_ch4_lbs":82653.927,"annual_n2o_lbs":18647.637,"annual_co2e_tons":27365.541,"capacity_factor":0.486,"emissions_intensity_kg_per_mwh":37.487},{"id":"AL_3260170_-8778110","name":"Greene County","state":"AL","county":"Greene","lat":32.6017,"lon":-87.7811,"primary_fuel_bucket":"gas","nerc_region":"SERC","member_count":1,"member_oris_codes":[10],"capacity_mw":1288.4,"annual_net_gen_mwh":1396260.0,"annual_co2_tons":877874.75,"annual_nox_tons":1128.364,"annual_so2_tons":4.771,"annual_ch4_lbs":32570.445,"annual_n2o_lbs":3258.456,"annual_co2e_tons":878762.482,"capacity_factor":0.124,"emissions_intensity_kg_per_mwh":570.377},{"id":"AL_3442127_-8639393","name":"Guntersville","state":"AL","county":"Marshall","lat":34.42127,"lon":-86.39393,"primary_fuel_bucket":"dam","nerc_region":"SERC","member_count":1,"member_oris_codes":[48],"capacity_mw":115.2,"annual_net_gen_mwh":453373.0,"annual_co2_tons":null,"annual_nox_tons":null,"annual_so2_tons":null,"annual_ch4_lbs":null,"annual_n2o_lbs":null,"annual_co2e_tons":null,"capacity_factor":0.449,"emissions_intensity_kg_per_mwh":null},{"id":"AL_3378450_-8605240","name":"H Neely Henry Dam","state":"AL","county":"Calhoun","lat":33.7845,"lon":-86.0524,"primary_fuel_bucket":"dam","nerc_region":"SERC","member_count":1,"member_oris_codes":[11],"capacity_mw":72.9,"annual_net_gen_mwh":196724.0,"annual_co2_tons":null,"annual_nox_tons":null,"annual_so2_tons":null,"annual_ch4_lbs":null,"annual_n2o_lbs":null,"annual_co2e_tons":null,"capacity_factor":0.308,"emissions_intensity_kg_per_mwh":null},{"id":"AL_3325828_-8561604","name":"Harris Dam","state":"AL","county":"Randolph","lat":33.25828,"lon":-85.61605,"primary_fuel_bucket":"dam","nerc_region":"SERC","member_count":1,"member_oris_codes":[6188],"capacity_mw":135.0,"annual_net_gen_mwh":128932.0,"annual_co2_tons":null,"annual_nox_tons":null,"annual_so2_tons":null,"annual_ch4_lbs":null,"annual_n2o_lbs":null,"annual_co2e_tons":null,"capacity_factor":0.109,"emissions_intensity_kg_per_mwh":null},{"id":"AL_3196980_-8748060","name":"International Paper Pine Hill Mill","state":"AL","county":"Wilcox","lat":31.9698,"lon":-87.4806,"primary_fuel_bucket":"biomass","nerc_region":"SERC","member_count":1,"member_oris_codes":[54752],"capacity_mw":77.4,"annual_net_gen_mwh":448819.0,"annual_co2_tons":1321.328,"annual_nox_tons":159.931,"annual_so2_tons":548.444,"annual_ch4_lbs":78311.409,"annual_n2o_lbs":16682.76,"annual_co2e_tons":4628.154,"capacity_factor":0.662,"emissions_intensity_kg_per_mwh":2.671},{"id":"AL_3241870_-8647180","name":"International Paper Prattville Mill","state":"AL","county":"Autauga","lat":32.4187,"lon":-86.4718,"primary_fuel_bucket":"biomass","nerc_region":"SERC","member_count":1,"member_oris_codes":[52140],"capacity_mw":89.8,"annual_net_gen_mwh":610729.3,"annual_co2_tons":20919.31,"annual_nox_tons":281.857,"annual_so2_tons":518.152,"annual_ch4_lbs":60377.985,"annual_n2o_lbs":14753.553,"annual_co2e_tons":23719.448,"capacity_factor":0.776,"emissions_intensity_kg_per_mwh":31.074},{"id":"AL_3363190_-8705970","name":"James H Miller Jr","state":"AL","county":"Jefferson","lat":33.6319,"lon":-87.0597,"primary_fuel_bucket":"coal","nerc_region":"SERC","member_count":1,"member_oris_codes":[6002],"capacity_mw":2822.0,"annual_net_gen_mwh":15846086.0,"annual_co2_tons":18109178.3,"annual_nox_tons":5678.411,"annual_so2_tons":777.247,"annual_ch4_lbs":3946192.533,"annual_n2o_lbs":573840.613,"annual_co2e_tons":18240458.877,"capacity_factor":0.641,"emissions_intensity_kg_per_mwh":1036.747},{"id":"AL_3232424_-8678431","name":"Jones Bluff","state":"AL","county":"Autauga","lat":32.32424,"lon":-86.78432,"primary_fuel_bucket":"dam","nerc_region":"SERC","member_count":1,"member_oris_codes":[6131],"capacity_mw":82.0,"annual_net_gen_mwh":267212.0,"annual_co2_tons":null,"annual_nox_tons":null,"annual_so2_tons":null,"annual_ch4_lbs":null,"annual_n2o_lbs":null,"annual_co2e_tons":null,"capacity_factor":0.372,"emissions_intensity_kg_per_mwh":null},{"id":"AL_3268032_-8617008","name":"Walter Bouldin Dam","state":"AL","county":"Elmore","lat":32.68032,"lon":-86.17009,"primary_fuel_bucket":"dam","nerc_region":"SERC","member_count":7,"member_oris_codes":[13,15,16,17,19,4,21],"capacity_mw":1024.1,"annual_net_gen_mwh":2309442.0,"annual_co2_tons":null,"annual_nox_tons":null,"annual_so2_tons":null,"annual_ch4_lbs":null,"annual_n2o_lbs":null,"annual_co2e_tons":null,"capacity_factor":0.257,"emissions_intensity_kg_per_mwh":null},{"id":"AL_3122310_-8511160","name":"Joseph M Farley","state":"AL","county":"Houston","lat":31.2231,"lon":-85.1116,"primary_fuel_bucket":"nuclear","nerc_region":"SERC","member_count":1,"member_oris_codes":[6001],"capacity_mw":1776.4,"annual_net_gen_mwh":14758529.0,"annual_co2_tons":null,"annual_nox_tons":null,"annual_so2_tons":null,"annual_ch4_lbs":null,"annual_n2o_lbs":null,"annual_co2e_tons":null,"capacity_factor":0.948,"emissions_intensity_kg_per_mwh":null},{"id":"AL_3287631_-8538821","name":"LaFayette Solar Farm","state":"AL","county":"Chambers","lat":32.87631,"lon":-85.38821,"primary_fuel_bucket":"solar","nerc_region":"SERC","member_count":1,"member_oris_codes":[60583],"capacity_mw":79.2,"annual_net_gen_mwh":164839.0,"annual_co2_tons":null,"annual_nox_tons":null,"annual_so2_tons":null,"annual_ch4_lbs":null,"annual_n2o_lbs":null,"annual_co2e_tons":null,"capacity_factor":0.238,"emissions_intensity_kg_per_mwh":null},{"id":"AL_3394060_-8710770","name":"Lewis Smith Dam","state":"AL","county":"Walker","lat":33.9406,"lon":-87.1077,"primary_fuel_bucket":"dam","nerc_region":"SERC","member_count":1,"member_oris_codes":[18],"capacity_mw":181.0,"annual_net_gen_mwh":233391.0,"annual_co2_tons":null,"annual_nox_tons":null,"annual_so2_tons":null,"annual_ch4_lbs":null,"annual_n2o_lbs":null,"annual_co2e_tons":null,"capacity_factor":0.147,"emissions_intensity_kg_per_mwh":null},{"id":"AL_3342587_-8633754","name":"Logan Martin Dam","state":"AL","county":"Talladega","lat":33.42588,"lon":-86.33755,"primary_fuel_bucket":"dam","nerc_region":"SERC","member_count":1,"member_oris_codes":[14],"capacity_mw":128.1,"annual_net_gen_mwh":343509.0,"annual_co2_tons":null,"annual_nox_tons":null,"annual_so2_tons":null,"annual_ch4_lbs":null,"annual_n2o_lbs":null,"annual_co2e_tons":null,"capacity_factor":0.306,"emissions_intensity_kg_per_mwh":null},{"id":"AL_3140025_-8647644","name":"McWilliams","state":"AL","county":"Covington","lat":31.40026,"lon":-86.47645,"primary_fuel_bucket":"gas","nerc_region":"SERC","member_count":1,"member_oris_codes":[533],"capacity_mw":654.0,"annual_net_gen_mwh":3342941.0,"annual_co2_tons":1597627.103,"annual_nox_tons":206.528,"annual_so2_tons":8.148,"annual_ch4_lbs":55945.586,"annual_n2o_lbs":5584.921,"annual_co2e_tons":1599150.343,"capacity_factor":0.584,"emissions_intensity_kg_per_mwh":433.553},{"id":"AL_3217610_-8502720","name":"Mead Coated Board","state":"AL","county":"Russell","lat":32.1761,"lon":-85.0272,"primary_fuel_bucket":"biomass","nerc_region":"SERC","member_count":1,"member_oris_codes":[54802],"capacity_mw":120.5,"annual_net_gen_mwh":705660.0,"annual_co2_tons":47905.889,"annual_nox_tons":366.037,"annual_so2_tons":555.08,"annual_ch4_lbs":119965.3,"annual_n2o_lbs":21975.137,"annual_co2e_tons":52497.108,"capacity_factor":0.669,"emissions_intensity_kg_per_mwh":61.587},{"id":"AL_3210088_-8739976","name":"Millers Ferry","state":"AL","county":"Wilcox","lat":32.10088,"lon":-87.39977,"primary_fuel_bucket":"dam","nerc_region":"SERC","member_count":1,"member_oris_codes":[38],"capacity_mw":101.1,"annual_net_gen_mwh":315281.0,"annual_co2_tons":null,"annual_nox_tons":null,"annual_so2_tons":null,"annual_ch4_lbs":null,"annual_n2o_lbs":null,"annual_co2e_tons":null,"capacity_factor":0.356,"emissions_intensity_kg_per_mwh":null},{"id":"AL_3480062_-8787337","name":"Muscle Shoals","state":"AL","county":"Colbert","lat":34.80062,"lon":-87.87337,"primary_fuel_bucket":"solar","nerc_region":"SERC","member_count":2,"member_oris_codes":[62462,60058],"capacity_mw":302.0,"annual_net_gen_mwh":602084.4,"annual_co2_tons":null,"annual_nox_tons":null,"annual_so2_tons":null,"annual_ch4_lbs":null,"annual_n2o_lbs":null,"annual_co2e_tons":null,"capacity_factor":0.228,"emissions_intensity_kg_per_mwh":null},{"id":"AL_3100777_-8659194","name":"OE_ALD","state":"AL","county":"Covington","lat":31.00778,"lon":-86.59194,"primary_fuel_bucket":"solar","nerc_region":"SERC","member_count":1,"member_oris_codes":[64469],"capacity_mw":80.0,"annual_net_gen_mwh":163033.0,"annual_co2_tons":null,"annual_nox_tons":null,"annual_so2_tons":null,"annual_ch4_lbs":null,"annual_n2o_lbs":null,"annual_co2e_tons":null,"capacity_factor":0.233,"emissions_intensity_kg_per_mwh":null},{"id":"AL_3257438_-8506818","name":"Plant H. Allen Franklin","state":"AL","county":"Lee","lat":32.57439,"lon":-85.06819,"primary_fuel_bucket":"gas","nerc_region":"SERC","member_count":2,"member_oris_codes":[7710,55138],"capacity_mw":2098.7,"annual_net_gen_mwh":13682360.0,"annual_co2_tons":5592225.4,"annual_nox_tons":395.856,"annual_so2_tons":28.252,"annual_ch4_lbs":209758.875,"annual_n2o_lbs":20931.892,"annual_co2e_tons":5597935.5,"capacity_factor":0.744,"emissions_intensity_kg_per_mwh":370.783},{"id":"AL_3461098_-8661155","name":"Redstone Arsenal Hybrid","state":"AL","county":"Madison","lat":34.61099,"lon":-86.61155,"primary_fuel_bucket":"solar","nerc_region":"SERC","member_count":1,"member_oris_codes":[61901],"capacity_mw":11.0,"annual_net_gen_mwh":15523.0,"annual_co2_tons":null,"annual_nox_tons":null,"annual_so2_tons":null,"annual_ch4_lbs":null,"annual_n2o_lbs":null,"annual_co2e_tons":null,"capacity_factor":0.161,"emissions_intensity_kg_per_mwh":null},{"id":"AL_3434387_-8586610","name":"Sand Valley Power Station","state":"AL","county":"Dekalb","lat":34.34387,"lon":-85.8661,"primary_fuel_bucket":"biomass","nerc_region":"SERC","member_count":1,"member_oris_codes":[59710],"capacity_mw":4.8,"annual_net_gen_mwh":30626.0,"annual_co2_tons":0.001,"annual_nox_tons":0.0,"annual_so2_tons":5.344,"annual_ch4_lbs":0.0,"annual_n2o_lbs":0.0,"annual_co2e_tons":0.001,"capacity_factor":0.728,"emissions_intensity_kg_per_mwh":0.0},{"id":"AL_3332810_-8635682","name":"U S Alliance Coosa Pines","state":"AL","county":"Talladega","lat":33.32811,"lon":-86.35683,"primary_fuel_bucket":"biomass","nerc_region":"SERC","member_count":1,"member_oris_codes":[54216],"capacity_mw":25.9,"annual_net_gen_mwh":139284.0,"annual_co2_tons":14174.29,"annual_nox_tons":46.793,"annual_so2_tons":156.714,"annual_ch4_lbs":4330.726,"annual_n2o_lbs":2609.79,"annual_co2e_tons":14580.717,"capacity_factor":0.614,"emissions_intensity_kg_per_mwh":92.32},{"id":"AL_3417214_-8575380","name":"Weiss Dam","state":"AL","county":"Cherokee","lat":34.17214,"lon":-85.75381,"primary_fuel_bucket":"dam","nerc_region":"SERC","member_count":1,"member_oris_codes":[20],"capacity_mw":87.6,"annual_net_gen_mwh":183203.0,"annual_co2_tons":null,"annual_nox_tons":null,"annual_so2_tons":null,"annual_ch4_lbs":null,"annual_n2o_lbs":null,"annual_co2e_tons":null,"capacity_factor":0.239,"emissions_intensity_kg_per_mwh":null},{"id":"AL_3296071_-8765541","name":"Westervelt Moundville Cogen","state":"AL","county":"Hale","lat":32.96071,"lon":-87.65542,"primary_fuel_bucket":"biomass","nerc_region":"SERC","member_count":1,"member_oris_codes":[57467],"capacity_mw":13.0,"annual_net_gen_mwh":29510.0,"annual_co2_tons":0.0,"annual_nox_tons":11.792,"annual_so2_tons":2.106,"annual_ch4_lbs":11884.128,"annual_n2o_lbs":1559.792,"annual_co2e_tons":373.05,"capacity_factor":0.259,"emissions_intensity_kg_per_mwh":null},{"id":"AL_3480236_-8750363","name":"Wilson Dam","state":"AL","county":"Lawrence","lat":34.80236,"lon":-87.50364,"primary_fuel_bucket":"dam","nerc_region":"SERC","member_count":2,"member_oris_codes":[49,6440],"capacity_mw":1070.7,"annual_net_gen_mwh":3188488.0,"annual_co2_tons":null,"annual_nox_tons":null,"annual_so2_tons":null,"annual_ch4_lbs":null,"annual_n2o_lbs":null,"annual_co2e_tons":null,"capacity_factor":0.34,"emissions_intensity_kg_per_mwh":null},{"id":"AL_3401280_-8597080","name":"Gadsden","state":"AL","county":"Etowah","lat":34.0128,"lon":-85.9708,"primary_fuel_bucket":"gas","nerc_region":"SERC","member_count":1,"member_oris_codes":[7],"capacity_mw":138.0,"annual_net_gen_mwh":0.0,"annual_co2_tons":null,"annual_nox_tons":null,"annual_so2_tons":null,"annual_ch4_lbs":0.0,"annual_n2o_lbs":0.0,"annual_co2e_tons":0.0,"capacity_factor":null,"emissions_intensity_kg_per_mwh":null},{"id":"AR_3392672_-9385950","name":"UADA","state":"AR","county":"White","lat":33.92672,"lon":-93.8595,"primary_fuel_bucket":"solar","nerc_region":"SERC","member_count":2,"member_oris_codes":[67507,67526],"capacity_mw":4.8,"annual_net_gen_mwh":0.0,"annual_co2_tons":null,"annual_nox_tons":null,"annual_so2_tons":null,"annual_ch4_lbs":null,"annual_n2o_lbs":null,"annual_co2e_tons":null,"capacity_factor":null,"emissions_intensity_kg_per_mwh":null},{"id":"AR_3531100_-9323510","name":"Arkansas Nuclear One","state":"AR","county":"Pope","lat":35.311,"lon":-93.2351,"primary_fuel_bucket":"nuclear","nerc_region":"SERC","member_count":1,"member_oris_codes":[8055],"capacity_mw":1845.0,"annual_net_gen_mwh":14972481.0,"annual_co2_tons":null,"annual_nox_tons":null,"annual_so2_tons":null,"annual_ch4_lbs":null,"annual_n2o_lbs":null,"annual_co2e_tons":null,"capacity_factor":0.926,"emissions_intensity_kg_per_mwh":null},{"id":"AR_3364170_-9410830","name":"Ashdown","state":"AR","county":"Little River","lat":33.6417,"lon":-94.1083,"primary_fuel_bucket":"biomass","nerc_region":"SERC","member_count":1,"member_oris_codes":[54104],"capacity_mw":156.5,"annual_net_gen_mwh":496211.9,"annual_co2_tons":48053.906,"annual_nox_tons":292.918,"annual_so2_tons":645.21,"annual_ch4_lbs":39797.227,"annual_n2o_lbs":12217.723,"annual_co2e_tons":50229.916,"capacity_factor":0.362,"emissions_intensity_kg_per_mwh":87.853},{"id":"AR_3319100_-9193176","name":"Ashley-Chicot Solar","state":"AR","county":"Ashley","lat":33.19101,"lon":-91.93176,"primary_fuel_bucket":"solar","nerc_region":"SERC","member_count":2,"member_oris_codes":[66588,67515],"capacity_mw":2.0,"annual_net_gen_mwh":2213.0,"annual_co2_tons":null,"annual_nox_tons":null,"annual_so2_tons":null,"annual_ch4_lbs":null,"annual_n2o_lbs":null,"annual_co2e_tons":null,"capacity_factor":0.126,"emissions_intensity_kg_per_mwh":null},{"id":"AR_3642150_-9384737","name":"Beaver Dam","state":"AR","county":"Carroll","lat":36.42151,"lon":-93.84737,"primary_fuel_bucket":"dam","nerc_region":"MRO","member_count":1,"member_oris_codes":[182],"capacity_mw":112.0,"annual_net_gen_mwh":117665.0,"annual_co2_tons":null,"annual_nox_tons":null,"annual_so2_tons":null,"annual_ch4_lbs":null,"annual_n2o_lbs":null,"annual_co2e_tons":null,"capacity_factor":0.12,"emissions_intensity_kg_per_mwh":null},{"id":"AR_3637040_-9356451","name":"City of Green Forest (Carroll)","state":"AR","county":"Carroll","lat":36.37041,"lon":-93.56451,"primary_fuel_bucket":"solar","nerc_region":"SERC","member_count":2,"member_oris_codes":[66589,67514],"capacity_mw":2.2,"annual_net_gen_mwh":1837.0,"annual_co2_tons":null,"annual_nox_tons":null,"annual_so2_tons":null,"annual_ch4_lbs":null,"annual_n2o_lbs":null,"annual_co2e_tons":null,"capacity_factor":0.095,"emissions_intensity_kg_per_mwh":null},{"id":"AR_3548133_-9020620","name":"Big Cypress Solar, LLC","state":"AR","county":"Crittenden","lat":35.48133,"lon":-90.20621,"primary_fuel_bucket":"solar","nerc_region":"SERC","member_count":2,"member_oris_codes":[65483,67521],"capacity_mw":181.0,"annual_net_gen_mwh":9687.0,"annual_co2_tons":null,"annual_nox_tons":null,"annual_so2_tons":null,"annual_ch4_lbs":null,"annual_n2o_lbs":null,"annual_co2e_tons":null,"capacity_factor":0.006,"emissions_intensity_kg_per_mwh":null},{"id":"AR_3441314_-9305642","name":"Blakely Mountain","state":"AR","county":"Garland","lat":34.41315,"lon":-93.05642,"primary_fuel_bucket":"dam","nerc_region":"SERC","member_count":4,"member_oris_codes":[197,166,187,174],"capacity_mw":210.0,"annual_net_gen_mwh":626251.0,"annual_co2_tons":null,"annual_nox_tons":null,"annual_so2_tons":null,"annual_ch4_lbs":null,"annual_n2o_lbs":null,"annual_co2e_tons":null,"capacity_factor":0.34,"emissions_intensity_kg_per_mwh":null},{"id":"AR_3530661_-9372717","name":"Branch Solar Farm","state":"AR","county":"Franklin","lat":35.30662,"lon":-93.72717,"primary_fuel_bucket":"solar","nerc_region":"SERC","member_count":6,"member_oris_codes":[64392,64444,67519,67520,61869,63627],"capacity_mw":21.7,"annual_net_gen_mwh":25844.0,"annual_co2_tons":null,"annual_nox_tons":null,"annual_so2_tons":null,"annual_ch4_lbs":null,"annual_n2o_lbs":null,"annual_co2e_tons":null,"capacity_factor":0.136,"emissions_intensity_kg_per_mwh":null},{"id":"AR_3630630_-9240820","name":"Bull Shoals","state":"AR","county":"Marion","lat":36.3063,"lon":-92.4082,"primary_fuel_bucket":"dam","nerc_region":"MRO","member_count":2,"member_oris_codes":[198,196],"capacity_mw":420.4,"annual_net_gen_mwh":849725.0,"annual_co2_tons":null,"annual_nox_tons":null,"annual_so2_tons":null,"annual_ch4_lbs":null,"annual_n2o_lbs":null,"annual_co2e_tons":null,"capacity_factor":0.231,"emissions_intensity_kg_per_mwh":null},{"id":"AR_3407548_-9182832","name":"C&L","state":"AR","county":"Lincoln","lat":34.07549,"lon":-91.82832,"primary_fuel_bucket":"solar","nerc_region":"SERC","member_count":1,"member_oris_codes":[66590],"capacity_mw":1.0,"annual_net_gen_mwh":2200.0,"annual_co2_tons":null,"annual_nox_tons":null,"annual_so2_tons":null,"annual_ch4_lbs":null,"annual_n2o_lbs":null,"annual_co2e_tons":null,"capacity_factor":0.251,"emissions_intensity_kg_per_mwh":null},{"id":"AR_3526010_-9136342","name":"Carl Bailey","state":"AR","county":"Woodruff","lat":35.2601,"lon":-91.36343,"primary_fuel_bucket":"gas","nerc_region":"SERC","member_count":1,"member_oris_codes":[202],"capacity_mw":120.0,"annual_net_gen_mwh":null,"annual_co2_tons":0.0,"annual_nox_tons":0.0,"annual_so2_tons":0.0,"annual_ch4_lbs":null,"annual_n2o_lbs":null,"annual_co2e_tons":0.0,"capacity_factor":null,"emissions_intensity_kg_per_mwh":null},{"id":"AR_3347900_-9134900","name":"Chicot Solar","state":"AR","county":"Chicot","lat":33.479,"lon":-91.349,"primary_fuel_bucket":"solar","nerc_region":"SERC","member_count":1,"member_oris_codes":[63295],"capacity_mw":100.0,"annual_net_gen_mwh":205053.0,"annual_co2_tons":null,"annual_nox_tons":null,"annual_so2_tons":null,"annual_ch4_lbs":null,"annual_n2o_lbs":null,"annual_co2e_tons":null,"capacity_factor":0.234,"emissions_intensity_kg_per_mwh":null},{"id":"AR_3596567_-9058133","name":"City Water & Light - City of Jonesboro","state":"AR","county":"Craighead","lat":35.96568,"lon":-90.58134,"primary_fuel_bucket":"gas","nerc_region":"SERC","member_count":3,"member_oris_codes":[56505,8015,7283],"capacity_mw":257.4,"annual_net_gen_mwh":85543.0,"annual_co2_tons":52739.746,"annual_nox_tons":55.194,"annual_so2_tons":0.294,"annual_ch4_lbs":2020.628,"annual_n2o_lbs":201.679,"annual_co2e_tons":52794.758,"capacity_factor":0.038,"emissions_intensity_kg_per_mwh":559.306},{"id":"AR_3641930_-9064251","name":"Clay County Electrical Cooperative","state":"AR","county":"Clay","lat":36.41931,"lon":-90.64251,"primary_fuel_bucket":"solar","nerc_region":"SERC","member_count":1,"member_oris_codes":[66607],"capacity_mw":1.0,"annual_net_gen_mwh":2290.0,"annual_co2_tons":null,"annual_nox_tons":null,"annual_so2_tons":null,"annual_ch4_lbs":null,"annual_n2o_lbs":null,"annual_co2e_tons":null,"capacity_factor":0.261,"emissions_intensity_kg_per_mwh":null},{"id":"AR_3370610_-9123710","name":"Clearwater Paper APP CB","state":"AR","county":"Desha","lat":33.7061,"lon":-91.2371,"primary_fuel_bucket":"biomass","nerc_region":"SERC","member_count":1,"member_oris_codes":[50638],"capacity_mw":28.0,"annual_net_gen_mwh":110715.0,"annual_co2_tons":14437.269,"annual_nox_tons":45.156,"annual_so2_tons":116.218,"annual_ch4_lbs":3344.726,"annual_n2o_lbs":1937.104,"annual_co2e_tons":14740.762,"capacity_factor":0.451,"emissions_intensity_kg_per_mwh":118.297},{"id":"AR_3592073_-9054464","name":"Jonesboro CWL Solar Park","state":"AR","county":"Craighead","lat":35.92074,"lon":-90.54465,"primary_fuel_bucket":"solar","nerc_region":"SERC","member_count":3,"member_oris_codes":[66608,67487,67188],"capacity_mw":12.5,"annual_net_gen_mwh":5573.0,"annual_co2_tons":null,"annual_nox_tons":null,"annual_so2_tons":null,"annual_ch4_lbs":null,"annual_n2o_lbs":null,"annual_co2e_tons":null,"capacity_factor":0.051,"emissions_intensity_kg_per_mwh":null},{"id":"AR_3398650_-9131578","name":"Dam 2","state":"AR","county":"Desha","lat":33.9865,"lon":-91.31579,"primary_fuel_bucket":"dam","nerc_region":"SERC","member_count":1,"member_oris_codes":[7246],"capacity_mw":102.6,"annual_net_gen_mwh":342284.0,"annual_co2_tons":null,"annual_nox_tons":null,"annual_so2_tons":null,"annual_ch4_lbs":null,"annual_n2o_lbs":null,"annual_co2e_tons":null,"capacity_factor":0.381,"emissions_intensity_kg_per_mwh":null},{"id":"AR_3518894_-9297943","name":"Dardanelle","state":"AR","county":"Pope","lat":35.18895,"lon":-92.97944,"primary_fuel_bucket":"dam","nerc_region":"MRO","member_count":2,"member_oris_codes":[199,7135],"capacity_mw":193.2,"annual_net_gen_mwh":561478.0,"annual_co2_tons":null,"annual_nox_tons":null,"annual_so2_tons":null,"annual_ch4_lbs":null,"annual_n2o_lbs":null,"annual_co2e_tons":null,"capacity_factor":0.332,"emissions_intensity_kg_per_mwh":null},{"id":"AR_3586190_-9002530","name":"Dell Power Plant","state":"AR","county":"Mississippi","lat":35.8619,"lon":-90.0253,"primary_fuel_bucket":"gas","nerc_region":"SERC","member_count":1,"member_oris_codes":[55340],"capacity_mw":679.1,"annual_net_gen_mwh":4087322.0,"annual_co2_tons":1863066.524,"annual_nox_tons":158.805,"annual_so2_tons":9.423,"annual_ch4_lbs":67001.149,"annual_n2o_lbs":6715.454,"annual_co2e_tons":1864894.338,"capacity_factor":0.687,"emissions_intensity_kg_per_mwh":413.509},{"id":"AR_3609102_-9417936","name":"Harry D. Mattison Power Plant","state":"AR","county":"Washington","lat":36.09102,"lon":-94.17937,"primary_fuel_bucket":"gas","nerc_region":"SERC","member_count":4,"member_oris_codes":[56489,56328,60536,57025],"capacity_mw":421.4,"annual_net_gen_mwh":246763.0,"annual_co2_tons":179100.265,"annual_nox_tons":296.241,"annual_so2_tons":1.929,"annual_ch4_lbs":6326.214,"annual_n2o_lbs":631.294,"annual_co2e_tons":179272.479,"capacity_factor":0.067,"emissions_intensity_kg_per_mwh":658.434},{"id":"AR_3541792_-9434360","name":"Ellis Hydro","state":"AR","county":"Crawford","lat":35.41792,"lon":-94.3436,"primary_fuel_bucket":"dam","nerc_region":"SERC","member_count":2,"member_oris_codes":[7040,54283],"capacity_mw":33.7,"annual_net_gen_mwh":123756.0,"annual_co2_tons":null,"annual_nox_tons":null,"annual_so2_tons":null,"annual_ch4_lbs":null,"annual_n2o_lbs":null,"annual_co2e_tons":null,"capacity_factor":0.419,"emissions_intensity_kg_per_mwh":null},{"id":"AR_3468142_-9238757","name":"FECC Solar Benton","state":"AR","county":"Saline","lat":34.68142,"lon":-92.38757,"primary_fuel_bucket":"solar","nerc_region":"SERC","member_count":2,"member_oris_codes":[61839,67524],"capacity_mw":2.0,"annual_net_gen_mwh":1296.5,"annual_co2_tons":null,"annual_nox_tons":null,"annual_so2_tons":null,"annual_ch4_lbs":null,"annual_n2o_lbs":null,"annual_co2e_tons":null,"capacity_factor":0.074,"emissions_intensity_kg_per_mwh":null},{"id":"AR_3563607_-9122488","name":"Newport Solar Project","state":"AR","county":"Jackson","lat":35.63608,"lon":-91.22489,"primary_fuel_bucket":"solar","nerc_region":"SERC","member_count":3,"member_oris_codes":[66610,66112,67527],"capacity_mw":183.9,"annual_net_gen_mwh":83101.0,"annual_co2_tons":null,"annual_nox_tons":null,"annual_so2_tons":null,"annual_ch4_lbs":null,"annual_n2o_lbs":null,"annual_co2e_tons":null,"capacity_factor":0.052,"emissions_intensity_kg_per_mwh":null},{"id":"AR_3607322_-9407750","name":"Noland Wastewater Treatment Plant Hybrid","state":"AR","county":"Washington","lat":36.07322,"lon":-94.0775,"primary_fuel_bucket":"solar","nerc_region":"MRO","member_count":4,"member_oris_codes":[67518,62682,60924,62683],"capacity_mw":24.0,"annual_net_gen_mwh":19359.0,"annual_co2_tons":null,"annual_nox_tons":null,"annual_so2_tons":null,"annual_ch4_lbs":null,"annual_n2o_lbs":null,"annual_co2e_tons":null,"capacity_factor":0.092,"emissions_intensity_kg_per_mwh":null},{"id":"AR_3625610_-9452410","name":"Flint Creek Power Plant","state":"AR","county":"Benton","lat":36.2561,"lon":-94.5241,"primary_fuel_bucket":"coal","nerc_region":"MRO","member_count":1,"member_oris_codes":[6138],"capacity_mw":558.0,"annual_net_gen_mwh":2065083.0,"annual_co2_tons":2491950.095,"annual_nox_tons":2574.744,"annual_so2_tons":643.003,"annual_ch4_lbs":567403.34,"annual_n2o_lbs":82554.463,"annual_co2e_tons":2510832.208,"capacity_factor":0.422,"emissions_intensity_kg_per_mwh":1094.706},{"id":"AR_3500870_-9080654","name":"Forrest City- Eldridge Road","state":"AR","county":"St Francis","lat":35.00871,"lon":-90.80654,"primary_fuel_bucket":"solar","nerc_region":"SERC","member_count":2,"member_oris_codes":[64262,64261],"capacity_mw":2.0,"annual_net_gen_mwh":4176.0,"annual_co2_tons":null,"annual_nox_tons":null,"annual_so2_tons":null,"annual_ch4_lbs":null,"annual_n2o_lbs":null,"annual_co2e_tons":null,"capacity_factor":0.238,"emissions_intensity_kg_per_mwh":null},{"id":"AR_3476500_-9216105","name":"Two Pine Landfill Gas Recovery","state":"AR","county":"Pulaski","lat":34.765,"lon":-92.16105,"primary_fuel_bucket":"biomass","nerc_region":"SERC","member_count":2,"member_oris_codes":[10050,56523],"capacity_mw":6.1,"annual_net_gen_mwh":26514.0,"annual_co2_tons":0.002,"annual_nox_tons":0.0,"annual_so2_tons":5.389,"annual_ch4_lbs":0.0,"annual_n2o_lbs":0.0,"annual_co2e_tons":0.002,"capacity_factor":0.496,"emissions_intensity_kg_per_mwh":0.0},{"id":"AR_3360940_-9379240","name":"Fulton","state":"AR","county":"Hempstead","lat":33.6094,"lon":-93.7924,"primary_fuel_bucket":"gas","nerc_region":"SERC","member_count":1,"member_oris_codes":[7825],"capacity_mw":154.8,"annual_net_gen_mwh":148802.0,"annual_co2_tons":93497.191,"annual_nox_tons":39.345,"annual_so2_tons":0.468,"annual_ch4_lbs":3340.654,"annual_n2o_lbs":333.365,"annual_co2e_tons":93588.131,"capacity_factor":0.11,"emissions_intensity_kg_per_mwh":570.014},{"id":"AR_3361676_-9262230","name":"SR Camden","state":"AR","county":"Ouachita","lat":33.61677,"lon":-92.62231,"primary_fuel_bucket":"solar","nerc_region":"SERC","member_count":2,"member_oris_codes":[65351,59947],"capacity_mw":14.0,"annual_net_gen_mwh":25426.0,"annual_co2_tons":null,"annual_nox_tons":null,"annual_so2_tons":null,"annual_ch4_lbs":null,"annual_n2o_lbs":null,"annual_co2e_tons":null,"capacity_factor":0.207,"emissions_intensity_kg_per_mwh":null},{"id":"AR_3314210_-9197500","name":"Georgia-Pacific Crossett LLC","state":"AR","county":"Ashley","lat":33.1421,"lon":-91.975,"primary_fuel_bucket":"gas","nerc_region":"SERC","member_count":1,"member_oris_codes":[10606],"capacity_mw":25.0,"annual_net_gen_mwh":6407.1,"annual_co2_tons":2125.082,"annual_nox_tons":3.019,"annual_so2_tons":0.011,"annual_ch4_lbs":80.161,"annual_n2o_lbs":7.999,"annual_co2e_tons":2127.264,"capacity_factor":0.029,"emissions_intensity_kg_per_mwh":300.891},{"id":"AR_3571643_-9181203","name":"Greers Ferry Lake","state":"AR","county":"Cleburne","lat":35.71644,"lon":-91.81203,"primary_fuel_bucket":"dam","nerc_region":"MRO","member_count":4,"member_oris_codes":[188,57160,57161,57162],"capacity_mw":108.1,"annual_net_gen_mwh":265966.0,"annual_co2_tons":null,"annual_nox_tons":null,"annual_so2_tons":null,"annual_ch4_lbs":null,"annual_n2o_lbs":null,"annual_co2e_tons":null,"capacity_factor":0.281,"emissions_intensity_kg_per_mwh":null},{"id":"AR_3521862_-9169708","name":"Searcy Solar Hybrid","state":"AR","county":"White","lat":35.21863,"lon":-91.69708,"primary_fuel_bucket":"solar","nerc_region":"MRO","member_count":4,"member_oris_codes":[63766,62617,67522,67523],"capacity_mw":208.8,"annual_net_gen_mwh":244122.0,"annual_co2_tons":null,"annual_nox_tons":null,"annual_so2_tons":null,"annual_ch4_lbs":null,"annual_n2o_lbs":null,"annual_co2e_tons":null,"capacity_factor":0.133,"emissions_intensity_kg_per_mwh":null},{"id":"AR_3438713_-9286831","name":"Magnet Cove Generating Station","state":"AR","county":"Hot Spring","lat":34.38713,"lon":-92.86831,"primary_fuel_bucket":"gas","nerc_region":"SERC","member_count":3,"member_oris_codes":[55418,170,55714],"capacity_mw":2013.3,"annual_net_gen_mwh":5719677.0,"annual_co2_tons":2453336.909,"annual_nox_tons":472.263,"annual_so2_tons":12.384,"annual_ch4_lbs":89849.767,"annual_n2o_lbs":8966.132,"annual_co2e_tons":2455782.819,"capacity_factor":0.324,"emissions_intensity_kg_per_mwh":389.118},{"id":"AR_3442100_-9319485","name":"Hot Springs 2020","state":"AR","county":"Garland","lat":34.421,"lon":-93.19485,"primary_fuel_bucket":"solar","nerc_region":"SERC","member_count":1,"member_oris_codes":[64263],"capacity_mw":1.0,"annual_net_gen_mwh":1683.0,"annual_co2_tons":null,"annual_nox_tons":null,"annual_so2_tons":null,"annual_ch4_lbs":null,"annual_n2o_lbs":null,"annual_co2e_tons":null,"capacity_factor":0.192,"emissions_intensity_kg_per_mwh":null},{"id":"AR_3567844_-9140876","name":"Independence","state":"AR","county":"Independence","lat":35.67844,"lon":-91.40876,"primary_fuel_bucket":"coal","nerc_region":"SERC","member_count":1,"member_oris_codes":[6641],"capacity_mw":1800.0,"annual_net_gen_mwh":4743250.0,"annual_co2_tons":6086794.294,"annual_nox_tons":4752.834,"annual_so2_tons":12847.941,"annual_ch4_lbs":1236441.575,"annual_n2o_lbs":179880.253,"annual_co2e_tons":6127938.61,"capacity_factor":0.301,"emissions_intensity_kg_per_mwh":1164.149},{"id":"AR_3364972_-9381194","name":"John W. Turk Jr. Power Plant","state":"AR","county":"Hempstead","lat":33.64972,"lon":-93.81194,"primary_fuel_bucket":"coal","nerc_region":"MRO","member_count":1,"member_oris_codes":[56564],"capacity_mw":609.0,"annual_net_gen_mwh":3112401.0,"annual_co2_tons":3166856.139,"annual_nox_tons":612.338,"annual_so2_tons":571.821,"annual_ch4_lbs":705882.077,"annual_n2o_lbs":102660.197,"annual_co2e_tons":3190340.964,"capacity_factor":0.583,"emissions_intensity_kg_per_mwh":923.057},{"id":"AR_3343047_-9269053","name":"Union Power Station","state":"AR","county":"Ouachita","lat":33.43047,"lon":-92.69053,"primary_fuel_bucket":"gas","nerc_region":"SERC","member_count":2,"member_oris_codes":[203,55380],"capacity_mw":2564.0,"annual_net_gen_mwh":13457585.0,"annual_co2_tons":5820741.917,"annual_nox_tons":682.381,"annual_so2_tons":29.908,"annual_ch4_lbs":214716.141,"annual_n2o_lbs":21426.579,"annual_co2e_tons":5826586.964,"capacity_factor":0.599,"emissions_intensity_kg_per_mwh":392.38},{"id":"AR_3638580_-9018670","name":"Municipal Light","state":"AR","county":"Clay","lat":36.3858,"lon":-90.1867,"primary_fuel_bucket":"oil","nerc_region":"SERC","member_count":1,"member_oris_codes":[193],"capacity_mw":7.2,"annual_net_gen_mwh":0.0,"annual_co2_tons":null,"annual_nox_tons":null,"annual_so2_tons":null,"annual_ch4_lbs":0.0,"annual_n2o_lbs":0.0,"annual_co2e_tons":0.0,"capacity_factor":null,"emissions_intensity_kg_per_mwh":null},{"id":"AR_3479560_-9235690","name":"Murray","state":"AR","county":"Pulaski","lat":34.7956,"lon":-92.3569,"primary_fuel_bucket":"dam","nerc_region":"SERC","member_count":1,"member_oris_codes":[7166],"capacity_mw":45.4,"annual_net_gen_mwh":142385.0,"annual_co2_tons":null,"annual_nox_tons":null,"annual_so2_tons":null,"annual_ch4_lbs":null,"annual_n2o_lbs":null,"annual_co2e_tons":null,"capacity_factor":0.358,"emissions_intensity_kg_per_mwh":null},{"id":"AR_3414842_-9371516","name":"Narrows (AR)","state":"AR","county":"Pike","lat":34.14843,"lon":-93.71517,"primary_fuel_bucket":"dam","nerc_region":"SERC","member_count":1,"member_oris_codes":[195],"capacity_mw":25.5,"annual_net_gen_mwh":46682.0,"annual_co2_tons":null,"annual_nox_tons":null,"annual_so2_tons":null,"annual_ch4_lbs":null,"annual_n2o_lbs":null,"annual_co2e_tons":null,"capacity_factor":0.209,"emissions_intensity_kg_per_mwh":null},{"id":"AR_3570538_-8996890","name":"Osceola (AR)","state":"AR","county":"Mississippi","lat":35.70538,"lon":-89.9689,"primary_fuel_bucket":"oil","nerc_region":"SERC","member_count":1,"member_oris_codes":[172],"capacity_mw":1.6,"annual_net_gen_mwh":0.0,"annual_co2_tons":null,"annual_nox_tons":null,"annual_so2_tons":null,"annual_ch4_lbs":0.0,"annual_n2o_lbs":0.0,"annual_co2e_tons":0.0,"capacity_factor":null,"emissions_intensity_kg_per_mwh":null},{"id":"AR_3459230_-9221660","name":"Oswald Generating Station","state":"AR","county":"Pulaski","lat":34.5923,"lon":-92.2166,"primary_fuel_bucket":"gas","nerc_region":"SERC","member_count":1,"member_oris_codes":[55221],"capacity_mw":599.5,"annual_net_gen_mwh":941018.0,"annual_co2_tons":426961.807,"annual_nox_tons":333.419,"annual_so2_tons":2.147,"annual_ch4_lbs":17989.624,"annual_n2o_lbs":1795.189,"annual_co2e_tons":427451.524,"capacity_factor":0.179,"emissions_intensity_kg_per_mwh":411.611},{"id":"AR_3546929_-9381750","name":"Ozark","state":"AR","county":"Franklin","lat":35.4693,"lon":-93.8175,"primary_fuel_bucket":"dam","nerc_region":"MRO","member_count":1,"member_oris_codes":[6142],"capacity_mw":100.0,"annual_net_gen_mwh":253118.0,"annual_co2_tons":null,"annual_nox_tons":null,"annual_so2_tons":null,"annual_ch4_lbs":null,"annual_n2o_lbs":null,"annual_co2e_tons":null,"capacity_factor":0.289,"emissions_intensity_kg_per_mwh":null},{"id":"AR_3421810_-9190250","name":"Pine Bluff Energy Center","state":"AR","county":"Jefferson","lat":34.2181,"lon":-91.9025,"primary_fuel_bucket":"gas","nerc_region":"SERC","member_count":1,"member_oris_codes":[55075],"capacity_mw":230.4,"annual_net_gen_mwh":1213353.0,"annual_co2_tons":410784.635,"annual_nox_tons":158.434,"annual_so2_tons":2.071,"annual_ch4_lbs":15104.329,"annual_n2o_lbs":1507.265,"annual_co2e_tons":411195.808,"capacity_factor":0.601,"emissions_intensity_kg_per_mwh":307.13},{"id":"AR_3422121_-9190736","name":"Pine Bluff Mill","state":"AR","county":"Jefferson","lat":34.22121,"lon":-91.90736,"primary_fuel_bucket":"biomass","nerc_region":"SERC","member_count":1,"member_oris_codes":[10627],"capacity_mw":85.0,"annual_net_gen_mwh":289037.0,"annual_co2_tons":25449.789,"annual_nox_tons":111.094,"annual_so2_tons":390.731,"annual_ch4_lbs":9925.195,"annual_n2o_lbs":6200.032,"annual_co2e_tons":26410.246,"capacity_factor":0.388,"emissions_intensity_kg_per_mwh":79.878},{"id":"AR_3566440_-8994890","name":"Plum Point Energy Station","state":"AR","county":"Mississippi","lat":35.6644,"lon":-89.9489,"primary_fuel_bucket":"coal","nerc_region":"SERC","member_count":1,"member_oris_codes":[56456],"capacity_mw":720.0,"annual_net_gen_mwh":3381761.0,"annual_co2_tons":3692584.12,"annual_nox_tons":1313.685,"annual_so2_tons":2295.022,"annual_ch4_lbs":831687.516,"annual_n2o_lbs":121011.38,"annual_co2e_tons":3720261.753,"capacity_factor":0.536,"emissions_intensity_kg_per_mwh":990.566},{"id":"AR_3443972_-9144000","name":"Stuttgart Solar","state":"AR","county":"Arkansas","lat":34.43972,"lon":-91.44,"primary_fuel_bucket":"solar","nerc_region":"SERC","member_count":1,"member_oris_codes":[61262],"capacity_mw":81.0,"annual_net_gen_mwh":163168.0,"annual_co2_tons":null,"annual_nox_tons":null,"annual_so2_tons":null,"annual_ch4_lbs":null,"annual_n2o_lbs":null,"annual_co2e_tons":null,"capacity_factor":0.23,"emissions_intensity_kg_per_mwh":null},{"id":"AR_3546238_-9380492","name":"Thomas Fitzhugh","state":"AR","county":"Franklin","lat":35.46238,"lon":-93.80493,"primary_fuel_bucket":"gas","nerc_region":"SERC","member_count":1,"member_oris_codes":[201],"capacity_mw":185.0,"annual_net_gen_mwh":404531.0,"annual_co2_tons":211302.118,"annual_nox_tons":143.361,"annual_so2_tons":1.16,"annual_ch4_lbs":7850.805,"annual_n2o_lbs":783.434,"annual_co2e_tons":211515.834,"capacity_factor":0.25,"emissions_intensity_kg_per_mwh":473.858},{"id":"AR_3442280_-9214060","name":"White Bluff","state":"AR","county":"Jefferson","lat":34.4228,"lon":-92.1406,"primary_fuel_bucket":"coal","nerc_region":"SERC","member_count":1,"member_oris_codes":[6009],"capacity_mw":1800.0,"annual_net_gen_mwh":3560853.0,"annual_co2_tons":4349899.839,"annual_nox_tons":3186.001,"annual_so2_tons":9517.245,"annual_ch4_lbs":956674.136,"annual_n2o_lbs":139211.192,"annual_co2e_tons":4381738.76,"capacity_factor":0.226,"emissions_intensity_kg_per_mwh":1108.207},{"id":"AZ_3350740_-11213108","name":"El Sol BESS","state":"AZ","county":"Maricopa","lat":33.5074,"lon":-112.13109,"primary_fuel_bucket":"other","nerc_region":"WECC","member_count":2,"member_oris_codes":[61861,62964],"capacity_mw":60.0,"annual_net_gen_mwh":0.0,"annual_co2_tons":null,"annual_nox_tons":null,"annual_so2_tons":null,"annual_ch4_lbs":null,"annual_n2o_lbs":null,"annual_co2e_tons":null,"capacity_factor":null,"emissions_intensity_kg_per_mwh":null},{"id":"AZ_3234481_-11101096","name":"Irvington Generating Station","state":"AZ","county":"Pinal","lat":32.34482,"lon":-111.01097,"primary_fuel_bucket":"gas","nerc_region":"WECC","member_count":7,"member_oris_codes":[118,56229,59233,124,126,6088,54594],"capacity_mw":923.8,"annual_net_gen_mwh":1661493.6,"annual_co2_tons":657023.661,"annual_nox_tons":923.138,"annual_so2_tons":17.177,"annual_ch4_lbs":38702.182,"annual_n2o_lbs":3863.057,"annual_co2e_tons":658077.346,"capacity_factor":0.205,"emissions_intensity_kg_per_mwh":358.739},{"id":"AZ_3342093_-11198328","name":"Santan","state":"AZ","county":"Maricopa","lat":33.42094,"lon":-111.98329,"primary_fuel_bucket":"gas","nerc_region":"WECC","member_count":6,"member_oris_codes":[117,141,58199,147,116,8068],"capacity_mw":4487.3,"annual_net_gen_mwh":10843396.0,"annual_co2_tons":4002106.766,"annual_nox_tons":552.972,"annual_so2_tons":20.513,"annual_ch4_lbs":194391.855,"annual_n2o_lbs":19399.808,"annual_co2e_tons":4007398.726,"capacity_factor":0.276,"emissions_intensity_kg_per_mwh":334.826},{"id":"AZ_3283702_-11182213","name":"Sonoran Solar Energy","state":"AZ","county":"Maricopa","lat":32.83703,"lon":-111.82213,"primary_fuel_bucket":"solar","nerc_region":"WECC","member_count":75,"member_oris_codes":[62643,58632,57373,64384,60684,57680,59168,60062,57657,58262,60413,64580,65185,58037,60685,64566,58832,57561,59779,59444,62899,60230,57930,58842,59020,58543,58383,57563,60822,60996,58292,58539,57324,57673,66636,64404,57707,60307,60308,65963,57562,58293,58708,58709,58486,62075,61104,63531,61678,57318,58171,57883,58501,65972,60467,57524,58213,63476,59634,56812,66627,65956,63440,60827,61199,67824,67821,59455,57392,58516,59454,58517,57939,66125,64426],"capacity_mw":4142.7,"annual_net_gen_mwh":6460484.0,"annual_co2_tons":null,"annual_nox_tons":null,"annual_so2_tons":null,"annual_ch4_lbs":null,"annual_n2o_lbs":null,"annual_co2e_tons":null,"capacity_factor":0.178,"emissions_intensity_kg_per_mwh":null},{"id":"AZ_3213825_-10998725","name":"Red Horse 2","state":"AZ","county":"Cochise","lat":32.13826,"lon":-109.98725,"primary_fuel_bucket":"solar","nerc_region":"WECC","member_count":4,"member_oris_codes":[60964,58833,60285,60381],"capacity_mw":151.0,"annual_net_gen_mwh":360064.0,"annual_co2_tons":null,"annual_nox_tons":null,"annual_so2_tons":null,"annual_ch4_lbs":null,"annual_n2o_lbs":null,"annual_co2e_tons":null,"capacity_factor":0.272,"emissions_intensity_kg_per_mwh":null},{"id":"AZ_3206030_-10989310","name":"Apache Station","state":"AZ","county":"Cochise","lat":32.0603,"lon":-109.8931,"primary_fuel_bucket":"coal","nerc_region":"WECC","member_count":1,"member_oris_codes":[160],"capacity_mw":660.7,"annual_net_gen_mwh":1982377.0,"annual_co2_tons":1483122.023,"annual_nox_tons":1183.104,"annual_so2_tons":138.873,"annual_ch4_lbs":175645.838,"annual_n2o_lbs":23855.629,"annual_co2e_tons":1488741.936,"capacity_factor":0.343,"emissions_intensity_kg_per_mwh":678.714},{"id":"AZ_3266816_-11446242","name":"Foothills Solar Plant Hybrid","state":"AZ","county":"Yuma","lat":32.66817,"lon":-114.46243,"primary_fuel_bucket":"solar","nerc_region":"WECC","member_count":2,"member_oris_codes":[57765,57997],"capacity_mw":77.7,"annual_net_gen_mwh":107071.0,"annual_co2_tons":null,"annual_nox_tons":null,"annual_so2_tons":null,"annual_ch4_lbs":null,"annual_n2o_lbs":null,"annual_co2e_tons":null,"capacity_factor":0.157,"emissions_intensity_kg_per_mwh":null},{"id":"AZ_3337431_-11292700","name":"Mesquite Generating Station","state":"AZ","county":"Maricopa","lat":33.37432,"lon":-112.927,"primary_fuel_bucket":"gas","nerc_region":"WECC","member_count":4,"member_oris_codes":[55282,55481,55372,55455],"capacity_mw":4513.6,"annual_net_gen_mwh":17866849.0,"annual_co2_tons":7648112.244,"annual_nox_tons":565.019,"annual_so2_tons":38.647,"annual_ch4_lbs":228165.996,"annual_n2o_lbs":22768.743,"annual_co2e_tons":7654323.427,"capacity_factor":0.452,"emissions_intensity_kg_per_mwh":388.331},{"id":"AZ_3498597_-11427479","name":"South Point Energy Center, LLC","state":"AZ","county":"Mohave","lat":34.98598,"lon":-114.27479,"primary_fuel_bucket":"gas","nerc_region":"WECC","member_count":3,"member_oris_codes":[56482,55124,55177],"capacity_mw":1484.0,"annual_net_gen_mwh":6437336.0,"annual_co2_tons":2860467.08,"annual_nox_tons":265.798,"annual_so2_tons":15.885,"annual_ch4_lbs":108320.693,"annual_n2o_lbs":10809.35,"annual_co2e_tons":2863415.808,"capacity_factor":0.495,"emissions_intensity_kg_per_mwh":403.113},{"id":"AZ_3512776_-11424833","name":"Gray Hawk Solar","state":"AZ","county":"Mohave","lat":35.12776,"lon":-114.24834,"primary_fuel_bucket":"solar","nerc_region":"WECC","member_count":7,"member_oris_codes":[58042,61272,60603,57556,63554,59819,67178],"capacity_mw":117.3,"annual_net_gen_mwh":192814.0,"annual_co2_tons":null,"annual_nox_tons":null,"annual_so2_tons":null,"annual_ch4_lbs":null,"annual_n2o_lbs":null,"annual_co2e_tons":null,"capacity_factor":0.188,"emissions_intensity_kg_per_mwh":null},{"id":"AZ_3468149_-11080173","name":"Chevelon Butte Wind Farm","state":"AZ","county":"Coconino","lat":34.6815,"lon":-110.80173,"primary_fuel_bucket":"wind","nerc_region":"WECC","member_count":1,"member_oris_codes":[66001],"capacity_mw":238.2,"annual_net_gen_mwh":235585.0,"annual_co2_tons":null,"annual_nox_tons":null,"annual_so2_tons":null,"annual_ch4_lbs":null,"annual_n2o_lbs":null,"annual_co2e_tons":null,"capacity_factor":0.113,"emissions_intensity_kg_per_mwh":null},{"id":"AZ_3467542_-11241909","name":"Chino Solar Valley","state":"AZ","county":"Yavapai","lat":34.67542,"lon":-112.4191,"primary_fuel_bucket":"solar","nerc_region":"WECC","member_count":3,"member_oris_codes":[57560,56228,58147],"capacity_mw":32.8,"annual_net_gen_mwh":51771.0,"annual_co2_tons":null,"annual_nox_tons":null,"annual_so2_tons":null,"annual_ch4_lbs":null,"annual_n2o_lbs":null,"annual_co2e_tons":null,"capacity_factor":0.18,"emissions_intensity_kg_per_mwh":null},{"id":"AZ_3493940_-11030330","name":"Cholla","state":"AZ","county":"Navajo","lat":34.9394,"lon":-110.3033,"primary_fuel_bucket":"coal","nerc_region":"WECC","member_count":1,"member_oris_codes":[113],"capacity_mw":425.9,"annual_net_gen_mwh":1787705.0,"annual_co2_tons":2272264.575,"annual_nox_tons":1982.25,"annual_so2_tons":918.534,"annual_ch4_lbs":461841.975,"annual_n2o_lbs":67183.019,"annual_co2e_tons":2287632.113,"capacity_factor":0.479,"emissions_intensity_kg_per_mwh":1153.079},{"id":"AZ_3291669_-11162737","name":"Desert Basin Generating Station","state":"AZ","county":"Pinal","lat":32.9167,"lon":-111.62738,"primary_fuel_bucket":"gas","nerc_region":"WECC","member_count":3,"member_oris_codes":[56948,55129,55522],"capacity_mw":2076.1,"annual_net_gen_mwh":3939490.0,"annual_co2_tons":1949012.497,"annual_nox_tons":202.176,"annual_so2_tons":9.684,"annual_ch4_lbs":70234.58,"annual_n2o_lbs":7008.727,"annual_co2e_tons":1950924.437,"capacity_factor":0.217,"emissions_intensity_kg_per_mwh":448.818},